{
"type": "FeatureCollection",
"features": [
{
  "type": "Feature",
  "id": "node/21579127",
  "properties": {
    "admin_level": "4",
    "capital": "4",
    "ele": "31",
    "is_in:continent": "Australia",
    "is_in:country": "Australia",
    "is_in:country_code": "AU",
    "is_in:iso_3166_2": "AU-VIC",
    "is_in:state_code": "VIC",
    "name": "Melbourne",
    "name:ar": "ملبورن",
    "name:de": "Melbourne",
    "name:el": "Μελβούρνη",
    "name:en:pronunciation": "ˈmɛlbn̩",
    "name:eo": "Melburno",
    "name:es": "Melbourne",
    "name:fi": "Melbourne",
    "name:fr": "Melbourne",
    "name:he": "מלבורן",
    "name:hi": "मॆल्बोर्न्",
    "name:is": "Melbourne",
    "name:ja": "メルボルン",
    "name:kn": "ಮೆಲ್ಬೋರ್ನ್",
    "name:ko": "멜버른",
    "name:lt": "Melburnas",
    "name:mi": "Poipiripi",
    "name:mk": "Мелбурн",
    "name:oc": "Melbourne",
    "name:pl": "Melbourne",
    "name:pronunciation": "ˈmɛlbn̩",
    "name:ru": "Мельбурн",
    "name:sr": "Мелбурн",
    "name:sv": "Melbourne",
    "name:uk": "Мельбурн",
    "name:zh": "墨爾本",
    "name:zh-Hans": "墨尔本",
    "place": "city",
    "population": "4440300",
    "postal_code": "3000",
    "rank": "1",
    "source:name:oc": "Lo Congrès",
    "source:population": "ABS Series 3218.0 - Regional Population Growth. Estimate at 30 Jun 2014",
    "state_capital": "yes",
    "website": "https://www.melbourne.vic.gov.au/",
    "wikidata": "Q3141",
    "wikipedia": "en:Melbourne",
    "id": "node/21579127"
  },
  "geometry": {
    "type": "Point",
    "coordinates": [
      144.9631608,
      -37.8142176
    ]
  }
},
{
  "type": "Feature",
  "id": "node/25632235",
  "properties": {
    "ele": "145",
    "is_in:country": "Australia",
    "is_in:country_code": "AU",
    "name": "Seymour",
    "name:ja": "セイモア",
    "name:ru": "Симор",
    "name:zh": "西摩",
    "place": "town",
    "population": "6370",
    "postal_code": "3660",
    "source:population": "http://www.censusdata.abs.gov.au/census_services/getproduct/census/2011/quickstat/",
    "wikidata": "Q985689",
    "wikipedia": "en:Seymour, Victoria",
    "id": "node/25632235"
  },
  "geometry": {
    "type": "Point",
    "coordinates": [
      145.1362432,
      -37.0241543
    ]
  }
},
{
  "type": "Feature",
  "id": "node/25635340",
  "properties": {
    "ele": "169",
    "is_in": "Victoria, Australia",
    "is_in:country": "Australia",
    "is_in:country_code": "AU",
    "name": "Benalla",
    "place": "town",
    "population": "10331",
    "source:population": "http://www.censusdata.abs.gov.au/census_services/getproduct/census/2011/quickstat/",
    "id": "node/25635340"
  },
  "geometry": {
    "type": "Point",
    "coordinates": [
      145.9883521,
      -36.548971
    ]
  }
},
{
  "type": "Feature",
  "id": "node/25646189",
  "properties": {
    "ele": "308",
    "is_in": "Australia, VIC, Victoria",
    "name": "Wallan",
    "place": "town",
    "population": "8504",
    "source:population": "http://www.censusdata.abs.gov.au/census_services/getproduct/census/2011/quickstat/",
    "id": "node/25646189"
  },
  "geometry": {
    "type": "Point",
    "coordinates": [
      144.9774549,
      -37.4138855
    ]
  }
},
{
  "type": "Feature",
  "id": "node/25646380",
  "properties": {
    "is_in:country": "Australia",
    "is_in:country_code": "AU",
    "name": "Kilmore",
    "place": "town",
    "population": "6678",
    "source:population": "http://www.censusdata.abs.gov.au/census_services/getproduct/census/2011/quickstat/",
    "id": "node/25646380"
  },
  "geometry": {
    "type": "Point",
    "coordinates": [
      144.9510311,
      -37.2922688
    ]
  }
},
{
  "type": "Feature",
  "id": "node/30863907",
  "properties": {
    "is_in": "Australia, Victoria",
    "is_in:country": "Australia",
    "is_in:country_code": "AU",
    "name": "Warburton",
    "name:ar": "واربورتون",
    "name:ru": "Уорбертон",
    "name:zh": "沃伯顿",
    "place": "town",
    "population": "2012",
    "population:census": "2016",
    "postal_code": "3799",
    "wikidata": "Q914214",
    "id": "node/30863907"
  },
  "geometry": {
    "type": "Point",
    "coordinates": [
      145.6887265,
      -37.7536223
    ]
  }
},
{
  "type": "Feature",
  "id": "node/30877330",
  "properties": {
    "ele": "50",
    "is_in": "Australia, VIC, Victoria",
    "is_in:continent": "Australia",
    "is_in:country": "Australia",
    "is_in:country_code": "AU",
    "is_in:state": "Victoria",
    "is_in:state_code": "VIC",
    "name": "Mildura",
    "name:en": "Mildura",
    "name:ja": "ミルデューラ",
    "name:ru": "Милдьюра",
    "name:uk": "Мілдьюра",
    "place": "city",
    "population": "48691",
    "website": "https://www.mildura.vic.gov.au/",
    "wikidata": "Q705829",
    "wikipedia": "en:Mildura",
    "id": "node/30877330"
  },
  "geometry": {
    "type": "Point",
    "coordinates": [
      142.1624972,
      -34.1847265
    ]
  }
},
{
  "type": "Feature",
  "id": "node/30917754",
  "properties": {
    "ele": "225",
    "is_in": "Australia, VIC, Victoria",
    "is_in:continent": "Australia",
    "is_in:country": "Australia",
    "is_in:country_code": "AU",
    "is_in:state": "Victoria",
    "is_in:state_code": "VIC",
    "name": "Bendigo",
    "name:en": "Bendigo",
    "name:ja": "ベンディゴ",
    "name:ru": "Бендиго",
    "name:zh": "本迪戈",
    "place": "city",
    "population": "86510",
    "website": "https://www.bendigo.vic.gov.au/",
    "wikidata": "Q497793",
    "wikipedia": "en:Bendigo",
    "id": "node/30917754"
  },
  "geometry": {
    "type": "Point",
    "coordinates": [
      144.2825931,
      -36.7588767
    ]
  }
},
{
  "type": "Feature",
  "id": "node/30929281",
  "properties": {
    "is_in": "Australia, Victoria",
    "name": "Launching Place",
    "name:zh": "隆城普雷斯",
    "place": "village",
    "postal_code": "3139",
    "id": "node/30929281"
  },
  "geometry": {
    "type": "Point",
    "coordinates": [
      145.5691921,
      -37.7806769
    ]
  }
},
{
  "type": "Feature",
  "id": "node/31617240",
  "properties": {
    "is_in": "Melbourne, Victoria, Australia",
    "name": "Hastings",
    "name:zh": "海斯廷斯",
    "place": "town",
    "wikidata": "Q3128258",
    "wikipedia": "en:Hastings, Victoria",
    "id": "node/31617240"
  },
  "geometry": {
    "type": "Point",
    "coordinates": [
      145.1902003,
      -38.307488
    ]
  }
},
{
  "type": "Feature",
  "id": "node/32101094",
  "properties": {
    "ele": "495",
    "is_in:country": "Australia",
    "is_in:country_code": "AU",
    "name": "Lancefield",
    "place": "town",
    "wikidata": "Q936713",
    "wikipedia": "en:Lancefield, Victoria",
    "id": "node/32101094"
  },
  "geometry": {
    "type": "Point",
    "coordinates": [
      144.7340354,
      -37.2763273
    ]
  }
},
{
  "type": "Feature",
  "id": "node/34103046",
  "properties": {
    "is_in:country": "Australia",
    "is_in:country_code": "AU",
    "name": "Harrietville",
    "place": "town",
    "wikidata": "Q2694498",
    "id": "node/34103046"
  },
  "geometry": {
    "type": "Point",
    "coordinates": [
      147.0638695,
      -36.8923168
    ]
  }
},
{
  "type": "Feature",
  "id": "node/34114869",
  "properties": {
    "addr:postcode": "3741",
    "ele": "319",
    "is_in:country": "Australia",
    "is_in:country_code": "AU",
    "name": "Bright",
    "name:ru": "Брайт",
    "place": "town",
    "website": "http://www.brightvictoria.com.au/",
    "wikidata": "Q915640",
    "wikipedia": "en:Bright, Victoria",
    "id": "node/34114869"
  },
  "geometry": {
    "type": "Point",
    "coordinates": [
      146.9607724,
      -36.7285335
    ]
  }
},
{
  "type": "Feature",
  "id": "node/36422054",
  "properties": {
    "is_in": "Victoria, Australia",
    "name": "Maldon",
    "place": "town",
    "wikidata": "Q3281764",
    "id": "node/36422054"
  },
  "geometry": {
    "type": "Point",
    "coordinates": [
      144.0689457,
      -36.9963144
    ]
  }
},
{
  "type": "Feature",
  "id": "node/36693367",
  "properties": {
    "created_by": "Potlatch 0.5a",
    "name": "Winchelsea",
    "place": "village",
    "id": "node/36693367"
  },
  "geometry": {
    "type": "Point",
    "coordinates": [
      143.9933043,
      -38.2426332
    ]
  }
},
{
  "type": "Feature",
  "id": "node/36698974",
  "properties": {
    "is_in": "Victoria, Australia",
    "name": "Lorne",
    "name:zh": "洛恩",
    "place": "town",
    "population": "967",
    "postal_code": "3232",
    "source": "2006 Census, Australian Bureau of Statistics",
    "wikidata": "Q838210",
    "id": "node/36698974"
  },
  "geometry": {
    "type": "Point",
    "coordinates": [
      143.9748166,
      -38.5411691
    ]
  }
},
{
  "type": "Feature",
  "id": "node/36701460",
  "properties": {
    "is_in": "Victoria, Australia",
    "is_in:continent": "Australia",
    "is_in:country": "Australia",
    "is_in:country_code": "AU",
    "is_in:state": "Victoria",
    "is_in:state_code": "VIC",
    "name": "Geelong",
    "name:en": "Geelong",
    "name:ja": "ジーロング",
    "name:pronunciation": "dʒɪˈlɒŋ",
    "name:ru": "Джелонг",
    "name:uk": "Джелонг",
    "name:zh": "吉朗",
    "place": "city",
    "population": "143921",
    "website": "https://www.geelongaustralia.com.au/",
    "wikidata": "Q231765",
    "wikipedia": "en:Geelong",
    "id": "node/36701460"
  },
  "geometry": {
    "type": "Point",
    "coordinates": [
      144.3598269,
      -38.1492813
    ]
  }
},
{
  "type": "Feature",
  "id": "node/55184586",
  "properties": {
    "name": "Nowa Nowa",
    "place": "village",
    "id": "node/55184586"
  },
  "geometry": {
    "type": "Point",
    "coordinates": [
      148.0910062,
      -37.7318356
    ]
  }
},
{
  "type": "Feature",
  "id": "node/55191990",
  "properties": {
    "name": "Lakes Entrance",
    "place": "town",
    "wikidata": "Q1020987",
    "id": "node/55191990"
  },
  "geometry": {
    "type": "Point",
    "coordinates": [
      147.9943828,
      -37.8794582
    ]
  }
},
{
  "type": "Feature",
  "id": "node/55192009",
  "properties": {
    "is_in:country": "Australia",
    "is_in:country_code": "AU",
    "name": "Bairnsdale",
    "name:ru": "Бэрнсдейл",
    "name:zh": "拜恩斯代尔",
    "place": "city",
    "population": "13900",
    "wikidata": "Q803960",
    "wikipedia": "en:Bairnsdale, Victoria",
    "id": "node/55192009"
  },
  "geometry": {
    "type": "Point",
    "coordinates": [
      147.6304752,
      -37.8254509
    ]
  }
},
{
  "type": "Feature",
  "id": "node/55196051",
  "properties": {
    "created_by": "JOSM",
    "name": "Rosedale",
    "place": "village",
    "id": "node/55196051"
  },
  "geometry": {
    "type": "Point",
    "coordinates": [
      146.7878527,
      -38.1511747
    ]
  }
},
{
  "type": "Feature",
  "id": "node/55196068",
  "properties": {
    "is_in:country": "Australia",
    "is_in:country_code": "AU",
    "name": "Morwell",
    "place": "town",
    "wikidata": "Q72337",
    "wikipedia": "en:Morwell, Victoria",
    "id": "node/55196068"
  },
  "geometry": {
    "type": "Point",
    "coordinates": [
      146.3993983,
      -38.2365734
    ]
  }
},
{
  "type": "Feature",
  "id": "node/55199038",
  "properties": {
    "name": "Trafalgar",
    "place": "village",
    "id": "node/55199038"
  },
  "geometry": {
    "type": "Point",
    "coordinates": [
      146.1543872,
      -38.2087797
    ]
  }
},
{
  "type": "Feature",
  "id": "node/55199053",
  "properties": {
    "name": "Yarragon",
    "place": "village",
    "id": "node/55199053"
  },
  "geometry": {
    "type": "Point",
    "coordinates": [
      146.0610329,
      -38.2037736
    ]
  }
},
{
  "type": "Feature",
  "id": "node/55199074",
  "properties": {
    "created_by": "JOSM",
    "name": "Darnum",
    "place": "village",
    "id": "node/55199074"
  },
  "geometry": {
    "type": "Point",
    "coordinates": [
      146.0037143,
      -38.1875459
    ]
  }
},
{
  "type": "Feature",
  "id": "node/55199092",
  "properties": {
    "is_in:country": "Australia",
    "is_in:country_code": "AU",
    "name": "Warragul",
    "name:ru": "Уоррагел",
    "place": "town",
    "wikidata": "Q942732",
    "wikipedia": "en:Warragul",
    "id": "node/55199092"
  },
  "geometry": {
    "type": "Point",
    "coordinates": [
      145.933629,
      -38.1588674
    ]
  }
},
{
  "type": "Feature",
  "id": "node/55199106",
  "properties": {
    "is_in": "Victoria, Australia",
    "name": "Drouin",
    "place": "town",
    "id": "node/55199106"
  },
  "geometry": {
    "type": "Point",
    "coordinates": [
      145.8561692,
      -38.1361076
    ]
  }
},
{
  "type": "Feature",
  "id": "node/56921985",
  "properties": {
    "is_in:country": "Australia",
    "is_in:country_code": "AU",
    "name": "Moe",
    "name:ru": "Моэ",
    "place": "town",
    "wikidata": "Q1420012",
    "wikipedia": "en:Moe, Victoria",
    "id": "node/56921985"
  },
  "geometry": {
    "type": "Point",
    "coordinates": [
      146.2618944,
      -38.1775203
    ]
  }
},
{
  "type": "Feature",
  "id": "node/59628055",
  "properties": {
    "is_in": "Victoria, Australia",
    "name": "Leongatha",
    "name:ru": "Леонгата",
    "place": "town",
    "wikidata": "Q1767620",
    "wikipedia": "en:Leongatha, Victoria",
    "id": "node/59628055"
  },
  "geometry": {
    "type": "Point",
    "coordinates": [
      145.9458605,
      -38.4761569
    ]
  }
},
{
  "type": "Feature",
  "id": "node/59631938",
  "properties": {
    "is_in:country": "Australia",
    "is_in:country_code": "AU",
    "name": "Inverloch",
    "place": "town",
    "wikidata": "Q2037996",
    "id": "node/59631938"
  },
  "geometry": {
    "type": "Point",
    "coordinates": [
      145.7279504,
      -38.6331582
    ]
  }
},
{
  "type": "Feature",
  "id": "node/59631939",
  "properties": {
    "is_in:country": "Australia",
    "is_in:country_code": "AU",
    "name": "Wonthaggi",
    "name:ru": "Уонтагги",
    "place": "town",
    "wikidata": "Q2022320",
    "wikipedia": "en:Wonthaggi",
    "id": "node/59631939"
  },
  "geometry": {
    "type": "Point",
    "coordinates": [
      145.5913433,
      -38.6043664
    ]
  }
},
{
  "type": "Feature",
  "id": "node/59631940",
  "properties": {
    "name": "Venus Bay 1st Estate",
    "place": "village",
    "id": "node/59631940"
  },
  "geometry": {
    "type": "Point",
    "coordinates": [
      145.8223958,
      -38.7001842
    ]
  }
},
{
  "type": "Feature",
  "id": "node/59631941",
  "properties": {
    "name": "Foster",
    "place": "town",
    "wikidata": "Q3749041",
    "wikipedia": "en:Foster, Victoria",
    "id": "node/59631941"
  },
  "geometry": {
    "type": "Point",
    "coordinates": [
      146.20186,
      -38.6509683
    ]
  }
},
{
  "type": "Feature",
  "id": "node/59633024",
  "properties": {
    "is_in": "Victoria, Australia",
    "is_in:country": "Australia",
    "is_in:country_code": "AU",
    "name": "Orbost",
    "name:ru": "Орбост",
    "place": "town",
    "wikidata": "Q2028572",
    "id": "node/59633024"
  },
  "geometry": {
    "type": "Point",
    "coordinates": [
      148.4554712,
      -37.7037061
    ]
  }
},
{
  "type": "Feature",
  "id": "node/59633025",
  "properties": {
    "created_by": "JOSM",
    "name": "Marlo",
    "place": "village",
    "id": "node/59633025"
  },
  "geometry": {
    "type": "Point",
    "coordinates": [
      148.5318336,
      -37.7950683
    ]
  }
},
{
  "type": "Feature",
  "id": "node/59634128",
  "properties": {
    "name": "Cann River",
    "name:ru": "Канн-Ривер",
    "place": "village",
    "id": "node/59634128"
  },
  "geometry": {
    "type": "Point",
    "coordinates": [
      149.1499463,
      -37.5656808
    ]
  }
},
{
  "type": "Feature",
  "id": "node/59653740",
  "properties": {
    "created_by": "JOSM",
    "name": "Glengarry",
    "place": "village",
    "id": "node/59653740"
  },
  "geometry": {
    "type": "Point",
    "coordinates": [
      146.5732474,
      -38.125847
    ]
  }
},
{
  "type": "Feature",
  "id": "node/59658742",
  "properties": {
    "is_in:country": "Australia",
    "is_in:country_code": "AU",
    "name": "Churchill",
    "old_name": "Hazelwood",
    "place": "village",
    "id": "node/59658742"
  },
  "geometry": {
    "type": "Point",
    "coordinates": [
      146.4240251,
      -38.3148078
    ]
  }
},
{
  "type": "Feature",
  "id": "node/59728919",
  "properties": {
    "name": "Heyfield",
    "place": "town",
    "wikidata": "Q1616962",
    "id": "node/59728919"
  },
  "geometry": {
    "type": "Point",
    "coordinates": [
      146.7847464,
      -37.9816865
    ]
  }
},
{
  "type": "Feature",
  "id": "node/59728920",
  "properties": {
    "created_by": "JOSM",
    "name": "Toongabbie",
    "place": "village",
    "id": "node/59728920"
  },
  "geometry": {
    "type": "Point",
    "coordinates": [
      146.6238386,
      -38.0594199
    ]
  }
},
{
  "type": "Feature",
  "id": "node/59740606",
  "properties": {
    "name": "Boolarra",
    "place": "village",
    "wikidata": "Q775240",
    "wikipedia": "en:Boolarra, Victoria",
    "id": "node/59740606"
  },
  "geometry": {
    "type": "Point",
    "coordinates": [
      146.2721984,
      -38.3813131
    ]
  }
},
{
  "type": "Feature",
  "id": "node/60283369",
  "properties": {
    "ele": "443",
    "is_in:country": "Australia",
    "is_in:country_code": "AU",
    "name": "Gisborne",
    "place": "town",
    "id": "node/60283369"
  },
  "geometry": {
    "type": "Point",
    "coordinates": [
      144.5904237,
      -37.486723
    ]
  }
},
{
  "type": "Feature",
  "id": "node/60287166",
  "properties": {
    "is_in:state": "Victoria",
    "is_in:state_code": "VIC",
    "name": "Euroa",
    "name:ru": "Юроа",
    "place": "town",
    "postal_code": "3666",
    "id": "node/60287166"
  },
  "geometry": {
    "type": "Point",
    "coordinates": [
      145.568763,
      -36.7527608
    ]
  }
},
{
  "type": "Feature",
  "id": "node/60287199",
  "properties": {
    "name": "Broadford",
    "name:ru": "Бродфорд",
    "place": "village",
    "id": "node/60287199"
  },
  "geometry": {
    "type": "Point",
    "coordinates": [
      145.0504004,
      -37.2019939
    ]
  }
},
{
  "type": "Feature",
  "id": "node/60303319",
  "properties": {
    "ele": "616",
    "is_in": "Victoria, Australia",
    "is_in:country": "Australia",
    "is_in:country_code": "AU",
    "name": "Daylesford",
    "name:ru": "Дейлсфорд",
    "place": "town",
    "wikidata": "Q3019340",
    "wikipedia": "en:Daylesford, Victoria",
    "id": "node/60303319"
  },
  "geometry": {
    "type": "Point",
    "coordinates": [
      144.1465866,
      -37.3414775
    ]
  }
},
{
  "type": "Feature",
  "id": "node/60568232",
  "properties": {
    "is_in": "Victoria, Australia",
    "is_in:country": "Australia",
    "name": "Kinglake",
    "place": "town",
    "population": "1062",
    "wikidata": "Q968998",
    "id": "node/60568232"
  },
  "geometry": {
    "type": "Point",
    "coordinates": [
      145.341131,
      -37.5327424
    ]
  }
},
{
  "type": "Feature",
  "id": "node/60570255",
  "properties": {
    "is_in": "Australia, Victoria",
    "is_in:country": "Australia",
    "is_in:country_code": "AU",
    "name": "Healesville",
    "name:ru": "Хилсвилл",
    "name:zh": "希尔斯维尔",
    "place": "town",
    "wikidata": "Q1015813",
    "wikipedia": "en:Healesville, Victoria",
    "id": "node/60570255"
  },
  "geometry": {
    "type": "Point",
    "coordinates": [
      145.5161533,
      -37.6537218
    ]
  }
},
{
  "type": "Feature",
  "id": "node/60796165",
  "properties": {
    "is_in": "Victoria, Australia",
    "name": "Glenrowan",
    "place": "town",
    "wikidata": "Q2358411",
    "id": "node/60796165"
  },
  "geometry": {
    "type": "Point",
    "coordinates": [
      146.2256668,
      -36.4622687
    ]
  }
},
{
  "type": "Feature",
  "id": "node/60796195",
  "properties": {
    "is_in": "Victoria, Australia",
    "is_in:country": "Australia",
    "is_in:country_code": "AU",
    "name": "Portland",
    "name:en": "Portland",
    "name:ru": "Портленд",
    "name:uk": "Портланд",
    "place": "town",
    "wikidata": "Q1663450",
    "id": "node/60796195"
  },
  "geometry": {
    "type": "Point",
    "coordinates": [
      141.6042304,
      -38.3456231
    ]
  }
},
{
  "type": "Feature",
  "id": "node/60796473",
  "properties": {
    "is_in": "Victoria, Australia",
    "is_in:country": "Australia",
    "is_in:country_code": "AU",
    "name": "Ouyen",
    "name:ru": "Уйен",
    "place": "town",
    "wikidata": "Q2042167",
    "id": "node/60796473"
  },
  "geometry": {
    "type": "Point",
    "coordinates": [
      142.3163922,
      -35.0692365
    ]
  }
},
{
  "type": "Feature",
  "id": "node/65639903",
  "properties": {
    "is_in": "Australia, Victoria",
    "name": "Eildon",
    "place": "town",
    "website": "https://www.lakeeildon.com/",
    "wikidata": "Q2052638",
    "wikipedia": "en:Eildon, Victoria",
    "id": "node/65639903"
  },
  "geometry": {
    "type": "Point",
    "coordinates": [
      145.910156,
      -37.2327565
    ]
  }
},
{
  "type": "Feature",
  "id": "node/65640166",
  "properties": {
    "created_by": "Potlatch 0.5",
    "is_in": "Australia, Victoria",
    "name": "Thornton",
    "place": "village",
    "id": "node/65640166"
  },
  "geometry": {
    "type": "Point",
    "coordinates": [
      145.7986671,
      -37.2542028
    ]
  }
},
{
  "type": "Feature",
  "id": "node/65640980",
  "properties": {
    "is_in": "Australia, Victoria",
    "name": "Alexandra",
    "place": "town",
    "wikidata": "Q2643563",
    "id": "node/65640980"
  },
  "geometry": {
    "type": "Point",
    "coordinates": [
      145.710775,
      -37.192428
    ]
  }
},
{
  "type": "Feature",
  "id": "node/65641576",
  "properties": {
    "is_in": "Victoria, Australia",
    "name": "Yea",
    "place": "town",
    "id": "node/65641576"
  },
  "geometry": {
    "type": "Point",
    "coordinates": [
      145.4224688,
      -37.2130473
    ]
  }
},
{
  "type": "Feature",
  "id": "node/65642379",
  "properties": {
    "is_in": "Victoria, Australia",
    "name": "Bonnie Doon",
    "place": "village",
    "id": "node/65642379"
  },
  "geometry": {
    "type": "Point",
    "coordinates": [
      145.8577689,
      -37.0243404
    ]
  }
},
{
  "type": "Feature",
  "id": "node/65642826",
  "properties": {
    "is_in": "Victoria, Australia",
    "name": "Mansfield",
    "name:ru": "Мансфилд",
    "place": "town",
    "website": "https://mansfieldonline.com.au/",
    "wikidata": "Q3286541",
    "wikipedia": "en:Mansfield, Victoria",
    "id": "node/65642826"
  },
  "geometry": {
    "type": "Point",
    "coordinates": [
      146.0881582,
      -37.0520197
    ]
  }
},
{
  "type": "Feature",
  "id": "node/65649235",
  "properties": {
    "is_in": "Victoria, Australia",
    "is_in:country": "Australia",
    "is_in:country_code": "AU",
    "name": "Violet Town",
    "place": "town",
    "population": "1084",
    "wikidata": "Q2340517",
    "wikipedia": "en:Violet Town",
    "id": "node/65649235"
  },
  "geometry": {
    "type": "Point",
    "coordinates": [
      145.7179789,
      -36.6370888
    ]
  }
},
{
  "type": "Feature",
  "id": "node/65657810",
  "properties": {
    "is_in": "Victoria, Australia",
    "name": "Nagambie",
    "place": "village",
    "id": "node/65657810"
  },
  "geometry": {
    "type": "Point",
    "coordinates": [
      145.1538251,
      -36.7850448
    ]
  }
},
{
  "type": "Feature",
  "id": "node/65663150",
  "properties": {
    "is_in": "Victoria, Australia",
    "is_in:country": "Australia",
    "is_in:country_code": "AU",
    "name": "Heathcote",
    "name:ru": "Хиткот",
    "place": "town",
    "wikidata": "Q1592513",
    "wikipedia": "en:Heathcote, Victoria",
    "id": "node/65663150"
  },
  "geometry": {
    "type": "Point",
    "coordinates": [
      144.7033003,
      -36.9160908
    ]
  }
},
{
  "type": "Feature",
  "id": "node/67340420",
  "properties": {
    "ele": "27",
    "is_in": "Melbourne, Victoria, Australia",
    "is_in:country": "Australia",
    "is_in:country_code": "AU",
    "name": "Dandenong",
    "name:pronunciation": "ˈdændɪnɒŋ",
    "name:zh": "丹德农",
    "place": "town",
    "postal_code": "3175",
    "website": "http://www.greaterdandenong.com/",
    "wikidata": "Q1159408",
    "wikipedia": "en:Dandenong, Victoria",
    "id": "node/67340420"
  },
  "geometry": {
    "type": "Point",
    "coordinates": [
      145.2147923,
      -37.98749
    ]
  }
},
{
  "type": "Feature",
  "id": "node/75040965",
  "properties": {
    "is_in": "Victoria, Australia",
    "is_in:country": "Australia",
    "is_in:country_code": "AU",
    "name": "St Andrews",
    "name:ja": "セント・アンドリュース",
    "place": "village",
    "population": "406",
    "wikidata": "Q7592430",
    "id": "node/75040965"
  },
  "geometry": {
    "type": "Point",
    "coordinates": [
      145.272874,
      -37.6027182
    ]
  }
},
{
  "type": "Feature",
  "id": "node/78094548",
  "properties": {
    "is_in": "Melbourne, Victoria, Australia",
    "is_in:country": "Australia",
    "is_in:country_code": "AU",
    "name": "Melton",
    "name:zh": "麦尔登",
    "place": "town",
    "population": "45624",
    "postal_code": "3337",
    "wikidata": "Q706032",
    "wikipedia": "en:Melton, Victoria",
    "id": "node/78094548"
  },
  "geometry": {
    "type": "Point",
    "coordinates": [
      144.5828446,
      -37.6835714
    ]
  }
},
{
  "type": "Feature",
  "id": "node/79917279",
  "properties": {
    "is_in:country": "Australia",
    "is_in:country_code": "AU",
    "name": "Maffra",
    "name:ru": "Мафра",
    "place": "town",
    "wikidata": "Q1883669",
    "id": "node/79917279"
  },
  "geometry": {
    "type": "Point",
    "coordinates": [
      146.9764384,
      -37.9652474
    ]
  }
},
{
  "type": "Feature",
  "id": "node/94421814",
  "properties": {
    "is_in": "Victoria, Australia",
    "name": "Robinvale",
    "name:ru": "Робинвейл",
    "place": "town",
    "wikidata": "Q526671",
    "id": "node/94421814"
  },
  "geometry": {
    "type": "Point",
    "coordinates": [
      142.7739356,
      -34.5840409
    ]
  }
},
{
  "type": "Feature",
  "id": "node/97160788",
  "properties": {
    "ele": "108",
    "is_in": "Australia, Victoria, Melbourne",
    "is_in:country": "Australia",
    "is_in:country_code": "AU",
    "name": "Lilydale",
    "name:zh": "利利代尔",
    "place": "town",
    "postal_code": "3140",
    "wikidata": "Q6548615",
    "wikipedia": "en:Lilydale, Victoria",
    "id": "node/97160788"
  },
  "geometry": {
    "type": "Point",
    "coordinates": [
      145.352405,
      -37.7576639
    ]
  }
},
{
  "type": "Feature",
  "id": "node/97542974",
  "properties": {
    "is_in": "Victoria, Australia",
    "name": "Malmsbury",
    "place": "village",
    "population": "612",
    "wikidata": "Q2421409",
    "wikipedia": "en:Malmsbury, Victoria",
    "id": "node/97542974"
  },
  "geometry": {
    "type": "Point",
    "coordinates": [
      144.38278,
      -37.1887679
    ]
  }
},
{
  "type": "Feature",
  "id": "node/97551519",
  "properties": {
    "name": "Taradale",
    "place": "village",
    "id": "node/97551519"
  },
  "geometry": {
    "type": "Point",
    "coordinates": [
      144.3481266,
      -37.1383817
    ]
  }
},
{
  "type": "Feature",
  "id": "node/97564451",
  "properties": {
    "ele": "310.9",
    "name": "Castlemaine",
    "name:ru": "Каслмейн",
    "place": "town",
    "wikidata": "Q260317",
    "wikipedia": "en:Castlemaine, Victoria",
    "id": "node/97564451"
  },
  "geometry": {
    "type": "Point",
    "coordinates": [
      144.2200032,
      -37.0664778
    ]
  }
},
{
  "type": "Feature",
  "id": "node/99490721",
  "properties": {
    "created_by": "Potlatch 0.5",
    "is_in": "Australia, Victoria",
    "name": "Marysville",
    "place": "village",
    "postal_code": "3779",
    "id": "node/99490721"
  },
  "geometry": {
    "type": "Point",
    "coordinates": [
      145.7490382,
      -37.5097663
    ]
  }
},
{
  "type": "Feature",
  "id": "node/106501642",
  "properties": {
    "created_by": "JOSM",
    "name": "Edi",
    "place": "village",
    "id": "node/106501642"
  },
  "geometry": {
    "type": "Point",
    "coordinates": [
      146.4269813,
      -36.6490573
    ]
  }
},
{
  "type": "Feature",
  "id": "node/106783005",
  "properties": {
    "name": "Tolmie",
    "place": "village",
    "id": "node/106783005"
  },
  "geometry": {
    "type": "Point",
    "coordinates": [
      146.2388766,
      -36.9360838
    ]
  }
},
{
  "type": "Feature",
  "id": "node/106945273",
  "properties": {
    "name": "Whitfield",
    "name:ru": "Уитфилд",
    "place": "village",
    "id": "node/106945273"
  },
  "geometry": {
    "type": "Point",
    "coordinates": [
      146.4142531,
      -36.7655239
    ]
  }
},
{
  "type": "Feature",
  "id": "node/107168870",
  "properties": {
    "name": "Snobs Creek",
    "place": "village",
    "id": "node/107168870"
  },
  "geometry": {
    "type": "Point",
    "coordinates": [
      145.8693179,
      -37.2594245
    ]
  }
},
{
  "type": "Feature",
  "id": "node/110831012",
  "properties": {
    "is_in": "Victoria, Australia",
    "name": "Flinders",
    "place": "village",
    "wikidata": "Q5459405",
    "id": "node/110831012"
  },
  "geometry": {
    "type": "Point",
    "coordinates": [
      145.0187057,
      -38.473312
    ]
  }
},
{
  "type": "Feature",
  "id": "node/110851535",
  "properties": {
    "is_in": "Victoria, Australia",
    "name": "Red Hill",
    "place": "village",
    "wikidata": "Q7304262",
    "wikipedia": "en:Red Hill, Victoria",
    "id": "node/110851535"
  },
  "geometry": {
    "type": "Point",
    "coordinates": [
      145.0264267,
      -38.3799499
    ]
  }
},
{
  "type": "Feature",
  "id": "node/110920561",
  "properties": {
    "is_in": "Victoria, Australia",
    "name": "Arthurs Seat",
    "name:zh": "亚瑟希特",
    "place": "village",
    "wikidata": "Q14935059",
    "wikipedia": "en:Arthurs Seat, Victoria",
    "id": "node/110920561"
  },
  "geometry": {
    "type": "Point",
    "coordinates": [
      144.9537421,
      -38.3543449
    ]
  }
},
{
  "type": "Feature",
  "id": "node/123453118",
  "properties": {
    "is_in": "Victoria, Australia",
    "is_in:country": "Australia",
    "is_in:country_code": "AU",
    "name": "Colac",
    "name:ja": "コーラック",
    "name:ru": "Колак",
    "place": "town",
    "wikidata": "Q1009509",
    "id": "node/123453118"
  },
  "geometry": {
    "type": "Point",
    "coordinates": [
      143.5858537,
      -38.3399766
    ]
  }
},
{
  "type": "Feature",
  "id": "node/123458448",
  "properties": {
    "is_in:country": "Australia",
    "is_in:state": "Victoria",
    "name": "Cobden",
    "place": "town",
    "wikidata": "Q2981144",
    "id": "node/123458448"
  },
  "geometry": {
    "type": "Point",
    "coordinates": [
      143.07788,
      -38.3282494
    ]
  }
},
{
  "type": "Feature",
  "id": "node/123474233",
  "properties": {
    "is_in:country": "Australia",
    "is_in:country_code": "AU",
    "is_in:state": "Victoria",
    "name": "Camperdown",
    "place": "town",
    "id": "node/123474233"
  },
  "geometry": {
    "type": "Point",
    "coordinates": [
      143.1465837,
      -38.2318682
    ]
  }
},
{
  "type": "Feature",
  "id": "node/124405711",
  "properties": {
    "is_in": "Victoria, Australia",
    "is_in:country": "Australia",
    "is_in:country_code": "AU",
    "name": "Hamilton",
    "name:ru": "Гамильтон",
    "place": "town",
    "wikidata": "Q762430",
    "id": "node/124405711"
  },
  "geometry": {
    "type": "Point",
    "coordinates": [
      142.0243127,
      -37.7435744
    ]
  }
},
{
  "type": "Feature",
  "id": "node/124415146",
  "properties": {
    "ele": "128",
    "name": "Horsham",
    "name:ru": "Хоршем",
    "place": "city",
    "wikidata": "Q1629019",
    "wikipedia": "en:Horsham, Victoria",
    "id": "node/124415146"
  },
  "geometry": {
    "type": "Point",
    "coordinates": [
      142.2018105,
      -36.7148099
    ]
  }
},
{
  "type": "Feature",
  "id": "node/131111452",
  "properties": {
    "is_in:country": "Australia",
    "is_in:state": "Victoria",
    "name": "Lavers Hill",
    "name:ru": "Лейверс-Хилл",
    "place": "village",
    "id": "node/131111452"
  },
  "geometry": {
    "type": "Point",
    "coordinates": [
      143.3914713,
      -38.6807403
    ]
  }
},
{
  "type": "Feature",
  "id": "node/135631881",
  "properties": {
    "is_in": "Victoria, Australia",
    "is_in:country": "Australia",
    "is_in:country_code": "AU",
    "name": "Echuca",
    "name:ru": "Эчука",
    "place": "town",
    "wikidata": "Q991600",
    "wikipedia": "en:Echuca",
    "id": "node/135631881"
  },
  "geometry": {
    "type": "Point",
    "coordinates": [
      144.7516955,
      -36.1281405
    ]
  }
},
{
  "type": "Feature",
  "id": "node/135631910",
  "properties": {
    "is_in": "Victoria, Australia",
    "is_in:country": "Australia",
    "is_in:country_code": "AU",
    "name": "Swan Hill",
    "name:ru": "Суон-Хилл",
    "place": "town",
    "wikidata": "Q2305836",
    "wikipedia": "en:Swan Hill, Victoria",
    "id": "node/135631910"
  },
  "geometry": {
    "type": "Point",
    "coordinates": [
      143.5592026,
      -35.3393279
    ]
  }
},
{
  "type": "Feature",
  "id": "node/139655584",
  "properties": {
    "created_by": "JOSM",
    "name": "Thorpdale",
    "place": "village",
    "id": "node/139655584"
  },
  "geometry": {
    "type": "Point",
    "coordinates": [
      146.1763319,
      -38.2884798
    ]
  }
},
{
  "type": "Feature",
  "id": "node/143243427",
  "properties": {
    "is_in": "Victoria, Australia",
    "name": "Portarlington",
    "name:zh": "波塔灵顿",
    "place": "town",
    "population": "3147",
    "wikidata": "Q7231520",
    "id": "node/143243427"
  },
  "geometry": {
    "type": "Point",
    "coordinates": [
      144.6530634,
      -38.1156562
    ]
  }
},
{
  "type": "Feature",
  "id": "node/145472402",
  "properties": {
    "is_in": "Victoria, Australia",
    "name": "Serpentine",
    "place": "village",
    "id": "node/145472402"
  },
  "geometry": {
    "type": "Point",
    "coordinates": [
      143.9736418,
      -36.4111834
    ]
  }
},
{
  "type": "Feature",
  "id": "node/145478410",
  "properties": {
    "is_in": "Victoria, Australia",
    "name": "Kerang",
    "name:ru": "Керанг",
    "place": "town",
    "population": "3780",
    "postal_code": "3579",
    "wikidata": "Q1739176",
    "wikipedia": "en:Kerang, Victoria",
    "id": "node/145478410"
  },
  "geometry": {
    "type": "Point",
    "coordinates": [
      143.9204152,
      -35.7338373
    ]
  }
},
{
  "type": "Feature",
  "id": "node/145496315",
  "properties": {
    "is_in": "Victoria, Australia",
    "name": "Rochester",
    "place": "town",
    "id": "node/145496315"
  },
  "geometry": {
    "type": "Point",
    "coordinates": [
      144.7010197,
      -36.3569068
    ]
  }
},
{
  "type": "Feature",
  "id": "node/145496386",
  "properties": {
    "is_in": "Victoria, Australia",
    "name": "Elmore",
    "place": "town",
    "id": "node/145496386"
  },
  "geometry": {
    "type": "Point",
    "coordinates": [
      144.6114432,
      -36.4960503
    ]
  }
},
{
  "type": "Feature",
  "id": "node/147649314",
  "properties": {
    "is_in": "Victoria, Australia",
    "name": "Cobram",
    "place": "town",
    "population": "6018",
    "wikidata": "Q2981173",
    "wikipedia": "en:Cobram",
    "id": "node/147649314"
  },
  "geometry": {
    "type": "Point",
    "coordinates": [
      145.6484379,
      -35.9197782
    ]
  }
},
{
  "type": "Feature",
  "id": "node/147650260",
  "properties": {
    "is_in": "Victoria, Australia",
    "name": "Strathmerton",
    "place": "village",
    "population": "941",
    "id": "node/147650260"
  },
  "geometry": {
    "type": "Point",
    "coordinates": [
      145.4814773,
      -35.9253013
    ]
  }
},
{
  "type": "Feature",
  "id": "node/147654380",
  "properties": {
    "is_in": "Victoria, Australia",
    "name": "Yarrawonga",
    "place": "town",
    "wikidata": "Q3571892",
    "id": "node/147654380"
  },
  "geometry": {
    "type": "Point",
    "coordinates": [
      146.0063494,
      -36.0141692
    ]
  }
},
{
  "type": "Feature",
  "id": "node/150984354",
  "properties": {
    "is_in": "Victoria, Australia",
    "name": "Korumburra",
    "place": "town",
    "wikidata": "Q1876313",
    "id": "node/150984354"
  },
  "geometry": {
    "type": "Point",
    "coordinates": [
      145.8236012,
      -38.4321809
    ]
  }
},
{
  "type": "Feature",
  "id": "node/150984383",
  "properties": {
    "is_in": "Victoria, Australia",
    "name": "Meeniyan",
    "place": "village",
    "id": "node/150984383"
  },
  "geometry": {
    "type": "Point",
    "coordinates": [
      146.0140244,
      -38.5789265
    ]
  }
},
{
  "type": "Feature",
  "id": "node/150984681",
  "properties": {
    "is_in": "Victoria, Australia",
    "name": "Sandy Point",
    "place": "village",
    "id": "node/150984681"
  },
  "geometry": {
    "type": "Point",
    "coordinates": [
      146.1258392,
      -38.8287854
    ]
  }
},
{
  "type": "Feature",
  "id": "node/150984762",
  "properties": {
    "is_in": "Victoria, Australia",
    "name": "Loch",
    "place": "village",
    "id": "node/150984762"
  },
  "geometry": {
    "type": "Point",
    "coordinates": [
      145.7066554,
      -38.3696875
    ]
  }
},
{
  "type": "Feature",
  "id": "node/150984808",
  "properties": {
    "is_in": "Victoria, Australia",
    "name": "Nyora",
    "place": "village",
    "id": "node/150984808"
  },
  "geometry": {
    "type": "Point",
    "coordinates": [
      145.6708903,
      -38.3347289
    ]
  }
},
{
  "type": "Feature",
  "id": "node/151064574",
  "properties": {
    "is_in": "Victoria, Australia",
    "name": "Licola",
    "place": "village",
    "postal_code": "3858",
    "id": "node/151064574"
  },
  "geometry": {
    "type": "Point",
    "coordinates": [
      146.6236613,
      -37.6277686
    ]
  }
},
{
  "type": "Feature",
  "id": "node/161251891",
  "properties": {
    "is_in:country": "Australia",
    "is_in:country_code": "AU",
    "name": "Yackandandah",
    "place": "village",
    "id": "node/161251891"
  },
  "geometry": {
    "type": "Point",
    "coordinates": [
      146.8390836,
      -36.3143823
    ]
  }
},
{
  "type": "Feature",
  "id": "node/161252527",
  "properties": {
    "is_in:country": "Australia",
    "is_in:country_code": "AU",
    "name": "Beechworth",
    "name:ru": "Бичуэрт",
    "place": "town",
    "wikidata": "Q2750312",
    "id": "node/161252527"
  },
  "geometry": {
    "type": "Point",
    "coordinates": [
      146.6870123,
      -36.3594895
    ]
  }
},
{
  "type": "Feature",
  "id": "node/161302593",
  "properties": {
    "is_in:country": "Australia",
    "is_in:country_code": "AU",
    "name": "Omeo",
    "place": "town",
    "population": "452",
    "website": "http://www.omeoregion.com.au/",
    "wikidata": "Q605980",
    "wikipedia": "en:Omeo",
    "id": "node/161302593"
  },
  "geometry": {
    "type": "Point",
    "coordinates": [
      147.5922462,
      -37.1003991
    ]
  }
},
{
  "type": "Feature",
  "id": "node/163564024",
  "properties": {
    "is_in:country": "Australia",
    "is_in:country_code": "AU",
    "name": "Benambra",
    "place": "village",
    "id": "node/163564024"
  },
  "geometry": {
    "type": "Point",
    "coordinates": [
      147.7019731,
      -36.9548032
    ]
  }
},
{
  "type": "Feature",
  "id": "node/171095775",
  "properties": {
    "name": "Erica",
    "place": "village",
    "id": "node/171095775"
  },
  "geometry": {
    "type": "Point",
    "coordinates": [
      146.3722255,
      -37.9770423
    ]
  }
},
{
  "type": "Feature",
  "id": "node/171095813",
  "properties": {
    "is_in": "Victoria, Australia",
    "name": "Rawson",
    "place": "village",
    "id": "node/171095813"
  },
  "geometry": {
    "type": "Point",
    "coordinates": [
      146.3996667,
      -37.9568186
    ]
  }
},
{
  "type": "Feature",
  "id": "node/174755062",
  "properties": {
    "ele": "442",
    "is_in": "Victoria, Australia",
    "is_in:country": "Australia",
    "is_in:country_code": "AU",
    "name": "Ballan",
    "name:zh": "巴兰",
    "place": "town",
    "population": "2045",
    "id": "node/174755062"
  },
  "geometry": {
    "type": "Point",
    "coordinates": [
      144.2267258,
      -37.599505
    ]
  }
},
{
  "type": "Feature",
  "id": "node/177799376",
  "properties": {
    "is_in": "Victoria, Australia",
    "name": "Aireys Inlet",
    "place": "village",
    "population": "1071",
    "postal_code": "3231",
    "id": "node/177799376"
  },
  "geometry": {
    "type": "Point",
    "coordinates": [
      144.1067555,
      -38.4620894
    ]
  }
},
{
  "type": "Feature",
  "id": "node/189820294",
  "properties": {
    "ele": "435",
    "is_in": "Victoria, Australia",
    "is_in:continent": "Australia",
    "is_in:country": "Australia",
    "is_in:country_code": "AU",
    "is_in:state": "Victoria",
    "is_in:state_code": "VIC",
    "name": "Ballarat",
    "name:el": "Μπαλαράτ",
    "name:he": "בלאראט",
    "name:ja": "バララット",
    "name:pt": "Ballarat",
    "name:ru": "Балларат",
    "name:zh": "巴拉瑞特",
    "place": "city",
    "population": "103815",
    "website": "http://www.ballarat.vic.gov.au/",
    "wikidata": "Q17856",
    "wikipedia": "en:Ballarat, Victoria",
    "id": "node/189820294"
  },
  "geometry": {
    "type": "Point",
    "coordinates": [
      143.8607215,
      -37.5622632
    ]
  }
},
{
  "type": "Feature",
  "id": "node/190049723",
  "properties": {
    "created_by": "JOSM",
    "name": "Avoca",
    "place": "town",
    "wikidata": "Q791235",
    "id": "node/190049723"
  },
  "geometry": {
    "type": "Point",
    "coordinates": [
      143.4745461,
      -37.0893309
    ]
  }
},
{
  "type": "Feature",
  "id": "node/192816449",
  "properties": {
    "is_in": "Victoria, Australia",
    "name": "Yarra Junction",
    "name:zh": "亚拉交汇点",
    "place": "town",
    "postal_code": "3797",
    "wikidata": "Q8049502",
    "id": "node/192816449"
  },
  "geometry": {
    "type": "Point",
    "coordinates": [
      145.6150255,
      -37.7821693
    ]
  }
},
{
  "type": "Feature",
  "id": "node/192825682",
  "properties": {
    "is_in": "Victoria, Australia",
    "name": "Woori Yallock",
    "name:zh": "沃瑞亚罗克",
    "place": "village",
    "wikidata": "Q8034033",
    "id": "node/192825682"
  },
  "geometry": {
    "type": "Point",
    "coordinates": [
      145.5301262,
      -37.7793329
    ]
  }
},
{
  "type": "Feature",
  "id": "node/197342891",
  "properties": {
    "name": "Chiltern",
    "place": "town",
    "id": "node/197342891"
  },
  "geometry": {
    "type": "Point",
    "coordinates": [
      146.6091261,
      -36.1510392
    ]
  }
},
{
  "type": "Feature",
  "id": "node/203102403",
  "properties": {
    "is_in:country": "Australia",
    "is_in:country_code": "AU",
    "name": "Tallangatta",
    "place": "town",
    "wikidata": "Q595043",
    "id": "node/203102403"
  },
  "geometry": {
    "type": "Point",
    "coordinates": [
      147.1778983,
      -36.2166166
    ]
  }
},
{
  "type": "Feature",
  "id": "node/207729497",
  "properties": {
    "is_in:country": "Australia",
    "is_in:country_code": "AU",
    "name": "Corryong",
    "place": "town",
    "id": "node/207729497"
  },
  "geometry": {
    "type": "Point",
    "coordinates": [
      147.9042145,
      -36.1975112
    ]
  }
},
{
  "type": "Feature",
  "id": "node/214095276",
  "properties": {
    "is_in:country": "Australia",
    "is_in:country_code": "AU",
    "name": "St Arnaud",
    "place": "town",
    "wikidata": "Q2403511",
    "id": "node/214095276"
  },
  "geometry": {
    "type": "Point",
    "coordinates": [
      143.255393,
      -36.614998
    ]
  }
},
{
  "type": "Feature",
  "id": "node/223239598",
  "properties": {
    "name": "Chewton",
    "place": "village",
    "id": "node/223239598"
  },
  "geometry": {
    "type": "Point",
    "coordinates": [
      144.2567357,
      -37.0819229
    ]
  }
},
{
  "type": "Feature",
  "id": "node/243920369",
  "properties": {
    "created_by": "JOSM",
    "name": "Falls Creek",
    "place": "village",
    "id": "node/243920369"
  },
  "geometry": {
    "type": "Point",
    "coordinates": [
      147.2765969,
      -36.8614797
    ]
  }
},
{
  "type": "Feature",
  "id": "node/244037887",
  "properties": {
    "is_in": "Victoria",
    "is_in:country": "Australia",
    "is_in:country_code": "AU",
    "name": "Bannockburn",
    "place": "town",
    "population": "3512",
    "wikidata": "Q4857005",
    "id": "node/244037887"
  },
  "geometry": {
    "type": "Point",
    "coordinates": [
      144.1741939,
      -38.0470559
    ]
  }
},
{
  "type": "Feature",
  "id": "node/244038687",
  "properties": {
    "is_in": "Victoria",
    "name": "Shelford",
    "place": "village",
    "id": "node/244038687"
  },
  "geometry": {
    "type": "Point",
    "coordinates": [
      143.9726735,
      -38.012412
    ]
  }
},
{
  "type": "Feature",
  "id": "node/244038691",
  "properties": {
    "is_in": "Victoria, Australia",
    "name": "Cressy",
    "place": "village",
    "id": "node/244038691"
  },
  "geometry": {
    "type": "Point",
    "coordinates": [
      143.6334604,
      -38.0302734
    ]
  }
},
{
  "type": "Feature",
  "id": "node/245207093",
  "properties": {
    "name": "Howqua Inlet",
    "place": "village",
    "id": "node/245207093"
  },
  "geometry": {
    "type": "Point",
    "coordinates": [
      146.1345578,
      -37.2236484
    ]
  }
},
{
  "type": "Feature",
  "id": "node/246992759",
  "properties": {
    "name": "Murchison",
    "place": "town",
    "id": "node/246992759"
  },
  "geometry": {
    "type": "Point",
    "coordinates": [
      145.21663,
      -36.6173625
    ]
  }
},
{
  "type": "Feature",
  "id": "node/246992762",
  "properties": {
    "is_in": "Victoria, Australia",
    "name": "Rushworth",
    "place": "town",
    "wikidata": "Q1835215",
    "id": "node/246992762"
  },
  "geometry": {
    "type": "Point",
    "coordinates": [
      145.01557,
      -36.5860102
    ]
  }
},
{
  "type": "Feature",
  "id": "node/247128968",
  "properties": {
    "name": "Baranduda",
    "place": "village",
    "postal_code": "3691",
    "id": "node/247128968"
  },
  "geometry": {
    "type": "Point",
    "coordinates": [
      146.947846,
      -36.184225
    ]
  }
},
{
  "type": "Feature",
  "id": "node/251144815",
  "properties": {
    "name": "Milawa",
    "place": "village",
    "id": "node/251144815"
  },
  "geometry": {
    "type": "Point",
    "coordinates": [
      146.4320957,
      -36.4492739
    ]
  }
},
{
  "type": "Feature",
  "id": "node/251145940",
  "properties": {
    "name": "Hotham Heights",
    "place": "village",
    "id": "node/251145940"
  },
  "geometry": {
    "type": "Point",
    "coordinates": [
      147.1439944,
      -36.9830728
    ]
  }
},
{
  "type": "Feature",
  "id": "node/251155078",
  "properties": {
    "name": "Dinner Plain",
    "place": "village",
    "id": "node/251155078"
  },
  "geometry": {
    "type": "Point",
    "coordinates": [
      147.2389786,
      -37.0235844
    ]
  }
},
{
  "type": "Feature",
  "id": "node/251229850",
  "properties": {
    "is_in": "Victoria, Australia",
    "name": "Merbein",
    "place": "village",
    "id": "node/251229850"
  },
  "geometry": {
    "type": "Point",
    "coordinates": [
      142.0581482,
      -34.167621
    ]
  }
},
{
  "type": "Feature",
  "id": "node/251452945",
  "properties": {
    "is_in": "Victoria, Australia",
    "name": "Rhyll",
    "place": "village",
    "population": "539",
    "id": "node/251452945"
  },
  "geometry": {
    "type": "Point",
    "coordinates": [
      145.3081245,
      -38.4642208
    ]
  }
},
{
  "type": "Feature",
  "id": "node/251587230",
  "properties": {
    "is_in": "Victoria, Australia",
    "name": "Newhaven",
    "place": "village",
    "population": "386",
    "id": "node/251587230"
  },
  "geometry": {
    "type": "Point",
    "coordinates": [
      145.3607644,
      -38.5150092
    ]
  }
},
{
  "type": "Feature",
  "id": "node/251587231",
  "properties": {
    "name": "San Remo",
    "place": "village",
    "id": "node/251587231"
  },
  "geometry": {
    "type": "Point",
    "coordinates": [
      145.369394,
      -38.5214924
    ]
  }
},
{
  "type": "Feature",
  "id": "node/252999906",
  "properties": {
    "is_in": "Victoria, Australia",
    "name": "Kyabram",
    "place": "town",
    "wikidata": "Q2740588",
    "id": "node/252999906"
  },
  "geometry": {
    "type": "Point",
    "coordinates": [
      145.0480905,
      -36.3131874
    ]
  }
},
{
  "type": "Feature",
  "id": "node/252999957",
  "properties": {
    "is_in": "Victoria, Australia",
    "name": "Tatura",
    "place": "town",
    "wikidata": "Q3516125",
    "id": "node/252999957"
  },
  "geometry": {
    "type": "Point",
    "coordinates": [
      145.2329963,
      -36.4399698
    ]
  }
},
{
  "type": "Feature",
  "id": "node/253000282",
  "properties": {
    "is_in": "Victoria, Australia",
    "name": "Girgarre",
    "place": "village",
    "id": "node/253000282"
  },
  "geometry": {
    "type": "Point",
    "coordinates": [
      144.9813143,
      -36.3977953
    ]
  }
},
{
  "type": "Feature",
  "id": "node/254394473",
  "properties": {
    "created_by": "JOSM",
    "name": "Traralgon South",
    "place": "village",
    "id": "node/254394473"
  },
  "geometry": {
    "type": "Point",
    "coordinates": [
      146.5419565,
      -38.2978709
    ]
  }
},
{
  "type": "Feature",
  "id": "node/255240308",
  "properties": {
    "created_by": "JOSM",
    "name": "Toombullup",
    "place": "village",
    "id": "node/255240308"
  },
  "geometry": {
    "type": "Point",
    "coordinates": [
      146.2628702,
      -36.9157863
    ]
  }
},
{
  "type": "Feature",
  "id": "node/255372879",
  "properties": {
    "name": "Killara",
    "place": "village",
    "id": "node/255372879"
  },
  "geometry": {
    "type": "Point",
    "coordinates": [
      146.9504284,
      -36.1400755
    ]
  }
},
{
  "type": "Feature",
  "id": "node/256017271",
  "properties": {
    "created_by": "JOSM",
    "name": "Bendoc",
    "place": "village",
    "id": "node/256017271"
  },
  "geometry": {
    "type": "Point",
    "coordinates": [
      148.8831664,
      -37.1460351
    ]
  }
},
{
  "type": "Feature",
  "id": "node/260333464",
  "properties": {
    "created_by": "JOSM",
    "name": "Bemm River",
    "place": "village",
    "id": "node/260333464"
  },
  "geometry": {
    "type": "Point",
    "coordinates": [
      148.9682657,
      -37.7600836
    ]
  }
},
{
  "type": "Feature",
  "id": "node/262269716",
  "properties": {
    "is_in:country": "Australia",
    "is_in:country_code": "AU",
    "name": "Newborough",
    "place": "village",
    "wikidata": "Q7017029",
    "wikipedia": "en:Newborough, Victoria",
    "id": "node/262269716"
  },
  "geometry": {
    "type": "Point",
    "coordinates": [
      146.2905163,
      -38.1830393
    ]
  }
},
{
  "type": "Feature",
  "id": "node/263675075",
  "properties": {
    "is_in": "Victoria, Australia",
    "name": "Yarra Glen",
    "name:zh": "亚拉格兰",
    "place": "town",
    "wikidata": "Q2453315",
    "wikipedia": "en:Yarra Glen, Victoria",
    "id": "node/263675075"
  },
  "geometry": {
    "type": "Point",
    "coordinates": [
      145.3743964,
      -37.6573475
    ]
  }
},
{
  "type": "Feature",
  "id": "node/266086130",
  "properties": {
    "is_in": "Victoria",
    "name": "Inverleigh",
    "place": "village",
    "id": "node/266086130"
  },
  "geometry": {
    "type": "Point",
    "coordinates": [
      144.0573333,
      -38.1016454
    ]
  }
},
{
  "type": "Feature",
  "id": "node/266597469",
  "properties": {
    "is_in": "Victoria, Australia",
    "name": "Charlton",
    "place": "town",
    "website": "www.charlton.vic.au",
    "wikidata": "Q2961059",
    "id": "node/266597469"
  },
  "geometry": {
    "type": "Point",
    "coordinates": [
      143.3518194,
      -36.26861
    ]
  }
},
{
  "type": "Feature",
  "id": "node/267123862",
  "properties": {
    "is_in": "Victoria",
    "name": "Port Campbell",
    "name:ja": "ポート・キャンベル",
    "place": "town",
    "postal_code": "3269",
    "wikidata": "Q987250",
    "id": "node/267123862"
  },
  "geometry": {
    "type": "Point",
    "coordinates": [
      142.995366,
      -38.6196293
    ]
  }
},
{
  "type": "Feature",
  "id": "node/267458656",
  "properties": {
    "is_in": "Victoria, Australia",
    "name": "Whittlesea",
    "name:ru": "Уитлси",
    "name:zh": "惠尔特西",
    "place": "town",
    "postal_code": "3757",
    "wikidata": "Q7996927",
    "id": "node/267458656"
  },
  "geometry": {
    "type": "Point",
    "coordinates": [
      145.1177321,
      -37.5121301
    ]
  }
},
{
  "type": "Feature",
  "id": "node/268698332",
  "properties": {
    "name": "Stratford",
    "place": "village",
    "source": "estimated",
    "id": "node/268698332"
  },
  "geometry": {
    "type": "Point",
    "coordinates": [
      147.0808184,
      -37.9689402
    ]
  }
},
{
  "type": "Feature",
  "id": "node/271886065",
  "properties": {
    "name": "Harcourt",
    "place": "village",
    "id": "node/271886065"
  },
  "geometry": {
    "type": "Point",
    "coordinates": [
      144.261155,
      -36.9992197
    ]
  }
},
{
  "type": "Feature",
  "id": "node/272672224",
  "properties": {
    "amenity": "post_office",
    "is_in:country": "Australia",
    "is_in:country_code": "AU",
    "is_in:state": "Victoria",
    "name": "Mortlake",
    "name:ru": "Мортлейк",
    "place": "town",
    "id": "node/272672224"
  },
  "geometry": {
    "type": "Point",
    "coordinates": [
      142.8055361,
      -38.0812102
    ]
  }
},
{
  "type": "Feature",
  "id": "node/273048501",
  "properties": {
    "ele": "580",
    "is_in:country": "Australia",
    "is_in:country_code": "AU",
    "name": "Woodend",
    "place": "town",
    "wikidata": "Q3569828",
    "wikipedia": "en:Woodend, Victoria",
    "id": "node/273048501"
  },
  "geometry": {
    "type": "Point",
    "coordinates": [
      144.5341381,
      -37.3536857
    ]
  }
},
{
  "type": "Feature",
  "id": "node/273048504",
  "properties": {
    "ele": "519",
    "is_in:country": "Australia",
    "is_in:country_code": "AU",
    "name": "Kyneton",
    "place": "town",
    "wikidata": "Q1931613",
    "wikipedia": "en:Kyneton, Victoria",
    "id": "node/273048504"
  },
  "geometry": {
    "type": "Point",
    "coordinates": [
      144.4552171,
      -37.247494
    ]
  }
},
{
  "type": "Feature",
  "id": "node/273863424",
  "properties": {
    "name": "Elphinstone",
    "place": "village",
    "id": "node/273863424"
  },
  "geometry": {
    "type": "Point",
    "coordinates": [
      144.3325338,
      -37.1032633
    ]
  }
},
{
  "type": "Feature",
  "id": "node/273870295",
  "properties": {
    "name": "Newstead",
    "place": "town",
    "wikidata": "Q7019856",
    "id": "node/273870295"
  },
  "geometry": {
    "type": "Point",
    "coordinates": [
      144.0624913,
      -37.1072778
    ]
  }
},
{
  "type": "Feature",
  "id": "node/276618395",
  "properties": {
    "is_in:country": "Australia",
    "is_in:country_code": "AU",
    "name": "Tylden",
    "place": "village",
    "id": "node/276618395"
  },
  "geometry": {
    "type": "Point",
    "coordinates": [
      144.408245,
      -37.3257463
    ]
  }
},
{
  "type": "Feature",
  "id": "node/276650497",
  "properties": {
    "addr:city": "Maryborough",
    "ele": "249",
    "is_in": "Victoria, Australia",
    "is_in:country": "Australia",
    "is_in:country_code": "AU",
    "name": "Maryborough",
    "name:ja": "マリーボロー",
    "name:ru": "Мэриборо",
    "place": "town",
    "wikidata": "Q1014561",
    "wikipedia": "en:Maryborough, Victoria",
    "id": "node/276650497"
  },
  "geometry": {
    "type": "Point",
    "coordinates": [
      143.7362835,
      -37.0481014
    ]
  }
},
{
  "type": "Feature",
  "id": "node/283282883",
  "properties": {
    "is_in": "Victoria, Australia",
    "name": "Minyip",
    "place": "town",
    "wikidata": "Q2748919",
    "id": "node/283282883"
  },
  "geometry": {
    "type": "Point",
    "coordinates": [
      142.5871266,
      -36.4612399
    ]
  }
},
{
  "type": "Feature",
  "id": "node/283285303",
  "properties": {
    "is_in": "Victoria, Australia",
    "name": "Donald",
    "name:ru": "Доналд",
    "place": "town",
    "wikidata": "Q3035979",
    "id": "node/283285303"
  },
  "geometry": {
    "type": "Point",
    "coordinates": [
      142.9830851,
      -36.3701184
    ]
  }
},
{
  "type": "Feature",
  "id": "node/283286429",
  "properties": {
    "is_in": "Victoria, Australia",
    "name": "Murtoa",
    "name:ru": "Мертоа",
    "place": "town",
    "population": "1000",
    "postal_code": "3390",
    "wikidata": "Q3328241",
    "id": "node/283286429"
  },
  "geometry": {
    "type": "Point",
    "coordinates": [
      142.4678219,
      -36.6194331
    ]
  }
},
{
  "type": "Feature",
  "id": "node/283287084",
  "properties": {
    "is_in": "Victoria, Australia",
    "name": "Glenorchy",
    "place": "village",
    "id": "node/283287084"
  },
  "geometry": {
    "type": "Point",
    "coordinates": [
      142.6632284,
      -36.9093826
    ]
  }
},
{
  "type": "Feature",
  "id": "node/283287126",
  "properties": {
    "ele": "231",
    "is_in": "Victoria, Australia",
    "is_in:country": "Australia",
    "is_in:country_code": "AU",
    "name": "Stawell",
    "name:ru": "Стоэлл",
    "place": "town",
    "wikidata": "Q2190456",
    "wikipedia": "en:Stawell, Victoria",
    "id": "node/283287126"
  },
  "geometry": {
    "type": "Point",
    "coordinates": [
      142.7745476,
      -37.0586869
    ]
  }
},
{
  "type": "Feature",
  "id": "node/283287579",
  "properties": {
    "ele": "307",
    "is_in": "Victoria, Australia",
    "is_in:country": "Australia",
    "is_in:country_code": "AU",
    "name": "Ararat",
    "name:lt": "Araratas",
    "name:ru": "Арарат",
    "place": "town",
    "wikidata": "Q626295",
    "wikipedia": "en:Ararat, Victoria",
    "id": "node/283287579"
  },
  "geometry": {
    "type": "Point",
    "coordinates": [
      142.930621,
      -37.2843443
    ]
  }
},
{
  "type": "Feature",
  "id": "node/283289063",
  "properties": {
    "is_in": "Victoria, Australia",
    "name": "Navarre",
    "place": "village",
    "id": "node/283289063"
  },
  "geometry": {
    "type": "Point",
    "coordinates": [
      143.1139211,
      -36.8996101
    ]
  }
},
{
  "type": "Feature",
  "id": "node/286410341",
  "properties": {
    "is_in": "Victoria, Australia",
    "name": "Baringhup",
    "place": "village",
    "id": "node/286410341"
  },
  "geometry": {
    "type": "Point",
    "coordinates": [
      143.9709534,
      -36.9822648
    ]
  }
},
{
  "type": "Feature",
  "id": "node/286432958",
  "properties": {
    "is_in": "Victoria, Australia",
    "name": "Carisbrook",
    "place": "village",
    "id": "node/286432958"
  },
  "geometry": {
    "type": "Point",
    "coordinates": [
      143.8143583,
      -37.048901
    ]
  }
},
{
  "type": "Feature",
  "id": "node/286439479",
  "properties": {
    "is_in": "Victoria, Australia",
    "name": "Dunolly",
    "name:ru": "Данолли",
    "place": "town",
    "wikidata": "Q739912",
    "id": "node/286439479"
  },
  "geometry": {
    "type": "Point",
    "coordinates": [
      143.7337931,
      -36.8590029
    ]
  }
},
{
  "type": "Feature",
  "id": "node/286446611",
  "properties": {
    "is_in": "Victoria, Australia",
    "name": "Laancoorie",
    "place": "village",
    "id": "node/286446611"
  },
  "geometry": {
    "type": "Point",
    "coordinates": [
      143.900029,
      -36.8271705
    ]
  }
},
{
  "type": "Feature",
  "id": "node/287165326",
  "properties": {
    "created_by": "Potlatch 0.10b",
    "is_in": "Victoria, Australia",
    "name": "Nhill",
    "name:ru": "Нилл",
    "place": "town",
    "id": "node/287165326"
  },
  "geometry": {
    "type": "Point",
    "coordinates": [
      141.6492931,
      -36.3331297
    ]
  }
},
{
  "type": "Feature",
  "id": "node/287166724",
  "properties": {
    "is_in": "Victoria, Australia",
    "name": "Warracknabeal",
    "place": "town",
    "wikidata": "Q2288705",
    "id": "node/287166724"
  },
  "geometry": {
    "type": "Point",
    "coordinates": [
      142.3953525,
      -36.2510282
    ]
  }
},
{
  "type": "Feature",
  "id": "node/287167308",
  "properties": {
    "amenity": "post_office",
    "is_in": "Victoria, Australia",
    "name": "Dimboola",
    "place": "town",
    "wikidata": "Q28928770",
    "id": "node/287167308"
  },
  "geometry": {
    "type": "Point",
    "coordinates": [
      142.0272639,
      -36.4554926
    ]
  }
},
{
  "type": "Feature",
  "id": "node/287497158",
  "properties": {
    "is_in": "Victoria, Australia",
    "name": "Birchip",
    "place": "town",
    "wikidata": "Q2904401",
    "id": "node/287497158"
  },
  "geometry": {
    "type": "Point",
    "coordinates": [
      142.9159408,
      -35.9827621
    ]
  }
},
{
  "type": "Feature",
  "id": "node/287497593",
  "properties": {
    "is_in": "Victoria, Australia",
    "name": "Sea Lake",
    "place": "town",
    "wikidata": "Q7439929",
    "id": "node/287497593"
  },
  "geometry": {
    "type": "Point",
    "coordinates": [
      142.8505218,
      -35.5056193
    ]
  }
},
{
  "type": "Feature",
  "id": "node/289619307",
  "properties": {
    "is_in": "Victoria, Australia",
    "name": "Buxton",
    "place": "village",
    "postal_code": "3711",
    "id": "node/289619307"
  },
  "geometry": {
    "type": "Point",
    "coordinates": [
      145.7092641,
      -37.4238479
    ]
  }
},
{
  "type": "Feature",
  "id": "node/289620071",
  "properties": {
    "is_in": "Victoria, Australia",
    "name": "Narbethong",
    "place": "village",
    "id": "node/289620071"
  },
  "geometry": {
    "type": "Point",
    "coordinates": [
      145.6628323,
      -37.5474609
    ]
  }
},
{
  "type": "Feature",
  "id": "node/289625028",
  "properties": {
    "is_in": "Victoria, Australia",
    "name": "Silvan",
    "place": "village",
    "postal_code": "3795",
    "wikidata": "Q7515664",
    "id": "node/289625028"
  },
  "geometry": {
    "type": "Point",
    "coordinates": [
      145.4196179,
      -37.8232257
    ]
  }
},
{
  "type": "Feature",
  "id": "node/290610576",
  "properties": {
    "name": "Eddington",
    "place": "village",
    "id": "node/290610576"
  },
  "geometry": {
    "type": "Point",
    "coordinates": [
      143.8590303,
      -36.8831059
    ]
  }
},
{
  "type": "Feature",
  "id": "node/290613222",
  "properties": {
    "name": "Llanelly",
    "place": "village",
    "id": "node/290613222"
  },
  "geometry": {
    "type": "Point",
    "coordinates": [
      143.8550744,
      -36.733737
    ]
  }
},
{
  "type": "Feature",
  "id": "node/290614048",
  "properties": {
    "name": "Newbridge",
    "place": "village",
    "id": "node/290614048"
  },
  "geometry": {
    "type": "Point",
    "coordinates": [
      143.8998345,
      -36.7392158
    ]
  }
},
{
  "type": "Feature",
  "id": "node/290614051",
  "properties": {
    "name": "Marong",
    "place": "village",
    "wikidata": "Q6772321",
    "wikipedia": "en:Marong",
    "id": "node/290614051"
  },
  "geometry": {
    "type": "Point",
    "coordinates": [
      144.1333965,
      -36.7363173
    ]
  }
},
{
  "type": "Feature",
  "id": "node/290620842",
  "properties": {
    "name": "Lockwood South",
    "place": "village",
    "id": "node/290620842"
  },
  "geometry": {
    "type": "Point",
    "coordinates": [
      144.1559904,
      -36.8385221
    ]
  }
},
{
  "type": "Feature",
  "id": "node/291548996",
  "properties": {
    "name": "Dunkeld",
    "place": "town",
    "population": "751",
    "wikidata": "Q5315351",
    "id": "node/291548996"
  },
  "geometry": {
    "type": "Point",
    "coordinates": [
      142.3441635,
      -37.6494468
    ]
  }
},
{
  "type": "Feature",
  "id": "node/291676622",
  "properties": {
    "is_in": "Victoria, Australia",
    "is_in:country": "Australia",
    "is_in:country_code": "AU",
    "name": "Irymple",
    "place": "town",
    "wikidata": "Q772372",
    "id": "node/291676622"
  },
  "geometry": {
    "type": "Point",
    "coordinates": [
      142.1704328,
      -34.235623
    ]
  }
},
{
  "type": "Feature",
  "id": "node/301978336",
  "properties": {
    "is_in": "Victoria, Australia",
    "name": "Smeaton",
    "place": "village",
    "postal_code": "3364",
    "id": "node/301978336"
  },
  "geometry": {
    "type": "Point",
    "coordinates": [
      143.9494734,
      -37.3321801
    ]
  }
},
{
  "type": "Feature",
  "id": "node/301978409",
  "properties": {
    "name": "Allendale",
    "place": "village",
    "id": "node/301978409"
  },
  "geometry": {
    "type": "Point",
    "coordinates": [
      143.9229115,
      -37.3701648
    ]
  }
},
{
  "type": "Feature",
  "id": "node/301983645",
  "properties": {
    "is_in": "Victoria, Australia",
    "is_in:country": "Australia",
    "is_in:country_code": "AU",
    "name": "Creswick",
    "place": "town",
    "wikidata": "Q992412",
    "wikipedia": "en:Creswick, Victoria",
    "id": "node/301983645"
  },
  "geometry": {
    "type": "Point",
    "coordinates": [
      143.8939669,
      -37.4245857
    ]
  }
},
{
  "type": "Feature",
  "id": "node/301990216",
  "properties": {
    "is_in": "Victoria, Australia",
    "name": "Ascot",
    "place": "village",
    "id": "node/301990216"
  },
  "geometry": {
    "type": "Point",
    "coordinates": [
      143.8046546,
      -37.3987914
    ]
  }
},
{
  "type": "Feature",
  "id": "node/301990792",
  "properties": {
    "addr:postcode": "3370",
    "addr:postcode_1": "3370",
    "is_in": "Victoria, Australia",
    "name": "Clunes",
    "place": "town",
    "id": "node/301990792"
  },
  "geometry": {
    "type": "Point",
    "coordinates": [
      143.7865803,
      -37.2940636
    ]
  }
},
{
  "type": "Feature",
  "id": "node/308150957",
  "properties": {
    "is_in": "Victoria, Australia",
    "name": "Cape Woolamai",
    "place": "village",
    "population": "1549",
    "id": "node/308150957"
  },
  "geometry": {
    "type": "Point",
    "coordinates": [
      145.3357662,
      -38.5312595
    ]
  }
},
{
  "type": "Feature",
  "id": "node/309587668",
  "properties": {
    "name": "The Gurdies",
    "place": "village",
    "wikidata": "Q31440555",
    "id": "node/309587668"
  },
  "geometry": {
    "type": "Point",
    "coordinates": [
      145.5639191,
      -38.3714408
    ]
  }
},
{
  "type": "Feature",
  "id": "node/309587669",
  "properties": {
    "name": "Grantville",
    "place": "village",
    "id": "node/309587669"
  },
  "geometry": {
    "type": "Point",
    "coordinates": [
      145.5318538,
      -38.4073922
    ]
  }
},
{
  "type": "Feature",
  "id": "node/309588091",
  "properties": {
    "is_in": "Phillip Island, Victoria, Australia",
    "name": "Surf Beach",
    "place": "village",
    "population": "694",
    "id": "node/309588091"
  },
  "geometry": {
    "type": "Point",
    "coordinates": [
      145.2997437,
      -38.5133108
    ]
  }
},
{
  "type": "Feature",
  "id": "node/309779601",
  "properties": {
    "is_in": "Phillip Island, Victoria, Australia",
    "name": "Ventnor",
    "place": "village",
    "population": "585",
    "id": "node/309779601"
  },
  "geometry": {
    "type": "Point",
    "coordinates": [
      145.1715254,
      -38.4690103
    ]
  }
},
{
  "type": "Feature",
  "id": "node/312681507",
  "properties": {
    "is_in": "Victoria, Australia",
    "name": "Berriwillock",
    "place": "village",
    "id": "node/312681507"
  },
  "geometry": {
    "type": "Point",
    "coordinates": [
      142.9925103,
      -35.6346106
    ]
  }
},
{
  "type": "Feature",
  "id": "node/312681738",
  "properties": {
    "is_in": "Victoria, Australia",
    "name": "Wycheproof",
    "place": "town",
    "website": "https://www.wycheproof.vic.au/",
    "wikidata": "Q2347199",
    "wikipedia": "en:Wycheproof",
    "id": "node/312681738"
  },
  "geometry": {
    "type": "Point",
    "coordinates": [
      143.2278903,
      -36.0791844
    ]
  }
},
{
  "type": "Feature",
  "id": "node/315415196",
  "properties": {
    "created_by": "Potlatch 0.10f",
    "is_in": "Victoria, Australia",
    "name": "Poowong",
    "place": "village",
    "id": "node/315415196"
  },
  "geometry": {
    "type": "Point",
    "coordinates": [
      145.7644193,
      -38.3430458
    ]
  }
},
{
  "type": "Feature",
  "id": "node/315441904",
  "properties": {
    "is_in": "Victoria, Australia",
    "name": "Smith's Beach",
    "place": "village",
    "population": "225",
    "id": "node/315441904"
  },
  "geometry": {
    "type": "Point",
    "coordinates": [
      145.2570493,
      -38.5017258
    ]
  }
},
{
  "type": "Feature",
  "id": "node/318538033",
  "properties": {
    "name": "Fryerstown",
    "place": "village",
    "id": "node/318538033"
  },
  "geometry": {
    "type": "Point",
    "coordinates": [
      144.2497343,
      -37.1384936
    ]
  }
},
{
  "type": "Feature",
  "id": "node/318538075",
  "properties": {
    "name": "Vaughan",
    "place": "village",
    "id": "node/318538075"
  },
  "geometry": {
    "type": "Point",
    "coordinates": [
      144.2115232,
      -37.1577724
    ]
  }
},
{
  "type": "Feature",
  "id": "node/318538943",
  "properties": {
    "name": "Guildford",
    "place": "village",
    "id": "node/318538943"
  },
  "geometry": {
    "type": "Point",
    "coordinates": [
      144.1668397,
      -37.1490607
    ]
  }
},
{
  "type": "Feature",
  "id": "node/321543045",
  "properties": {
    "name": "Campbells Creek",
    "place": "village",
    "id": "node/321543045"
  },
  "geometry": {
    "type": "Point",
    "coordinates": [
      144.2031242,
      -37.0952089
    ]
  }
},
{
  "type": "Feature",
  "id": "node/321716928",
  "properties": {
    "name": "Redesdale",
    "place": "village",
    "wikidata": "Q7305797",
    "wikipedia": "en:Redesdale, Victoria",
    "id": "node/321716928"
  },
  "geometry": {
    "type": "Point",
    "coordinates": [
      144.5315217,
      -37.020796
    ]
  }
},
{
  "type": "Feature",
  "id": "node/321882442",
  "properties": {
    "is_in": "Victoria, Australia",
    "name": "Woolsthorpe",
    "place": "village",
    "id": "node/321882442"
  },
  "geometry": {
    "type": "Point",
    "coordinates": [
      142.4314251,
      -38.1856495
    ]
  }
},
{
  "type": "Feature",
  "id": "node/321896626",
  "properties": {
    "name": "Mandurang South",
    "place": "village",
    "id": "node/321896626"
  },
  "geometry": {
    "type": "Point",
    "coordinates": [
      144.2820494,
      -36.8568853
    ]
  }
},
{
  "type": "Feature",
  "id": "node/322471548",
  "properties": {
    "name": "White Hills",
    "place": "village",
    "id": "node/322471548"
  },
  "geometry": {
    "type": "Point",
    "coordinates": [
      144.3080701,
      -36.7293626
    ]
  }
},
{
  "type": "Feature",
  "id": "node/322765968",
  "properties": {
    "is_in": "Victoria, Australia",
    "name": "Koroit",
    "place": "town",
    "postal_code": "3282",
    "wikidata": "Q6432497",
    "id": "node/322765968"
  },
  "geometry": {
    "type": "Point",
    "coordinates": [
      142.3642583,
      -38.2909806
    ]
  }
},
{
  "type": "Feature",
  "id": "node/324203838",
  "properties": {
    "name": "Deans Marsh",
    "place": "village",
    "id": "node/324203838"
  },
  "geometry": {
    "type": "Point",
    "coordinates": [
      143.8850105,
      -38.3971531
    ]
  }
},
{
  "type": "Feature",
  "id": "node/324204174",
  "properties": {
    "created_by": "Potlatch 0.5a",
    "name": "Birregurra",
    "place": "village",
    "id": "node/324204174"
  },
  "geometry": {
    "type": "Point",
    "coordinates": [
      143.7843347,
      -38.3377863
    ]
  }
},
{
  "type": "Feature",
  "id": "node/324204285",
  "properties": {
    "created_by": "Potlatch 0.5a",
    "name": "Barwon Downs",
    "place": "village",
    "id": "node/324204285"
  },
  "geometry": {
    "type": "Point",
    "coordinates": [
      143.7642038,
      -38.4718996
    ]
  }
},
{
  "type": "Feature",
  "id": "node/324500887",
  "properties": {
    "name": "Moyston",
    "place": "village",
    "wikidata": "Q12062134",
    "wikipedia": "en:Moyston, Victoria",
    "id": "node/324500887"
  },
  "geometry": {
    "type": "Point",
    "coordinates": [
      142.7663831,
      -37.301764
    ]
  }
},
{
  "type": "Feature",
  "id": "node/324521624",
  "properties": {
    "name": "Pomonal",
    "place": "village",
    "id": "node/324521624"
  },
  "geometry": {
    "type": "Point",
    "coordinates": [
      142.6089474,
      -37.1917868
    ]
  }
},
{
  "type": "Feature",
  "id": "node/324529175",
  "properties": {
    "name": "Halls Gap",
    "name:ja": "ホールズギャップ",
    "place": "village",
    "website": "https://www.visithallsgap.com.au/",
    "wikidata": "Q844442",
    "id": "node/324529175"
  },
  "geometry": {
    "type": "Point",
    "coordinates": [
      142.520244,
      -37.1417687
    ]
  }
},
{
  "type": "Feature",
  "id": "node/325250546",
  "properties": {
    "is_in": "Victoria, Australia",
    "is_in:country": "Australia",
    "is_in:country_code": "AU",
    "name": "Numurkah",
    "place": "town",
    "wikidata": "Q2115087",
    "id": "node/325250546"
  },
  "geometry": {
    "type": "Point",
    "coordinates": [
      145.4416699,
      -36.0930602
    ]
  }
},
{
  "type": "Feature",
  "id": "node/325650371",
  "properties": {
    "name": "Tooborac",
    "place": "village",
    "id": "node/325650371"
  },
  "geometry": {
    "type": "Point",
    "coordinates": [
      144.7989814,
      -37.0430837
    ]
  }
},
{
  "type": "Feature",
  "id": "node/330691574",
  "properties": {
    "name": "Rutherglen",
    "place": "town",
    "population": "2109",
    "wikidata": "Q2375558",
    "wikipedia": "en:Rutherglen, Victoria",
    "id": "node/330691574"
  },
  "geometry": {
    "type": "Point",
    "coordinates": [
      146.4601363,
      -36.0538594
    ]
  }
},
{
  "type": "Feature",
  "id": "node/333339752",
  "properties": {
    "is_in": "Victoria, Australia",
    "is_in:country": "Australia",
    "is_in:country_code": "AU",
    "name": "Wunghnu",
    "place": "village",
    "id": "node/333339752"
  },
  "geometry": {
    "type": "Point",
    "coordinates": [
      145.4326076,
      -36.1539436
    ]
  }
},
{
  "type": "Feature",
  "id": "node/335617920",
  "properties": {
    "name": "Forrest",
    "name:ru": "Феррест",
    "place": "village",
    "id": "node/335617920"
  },
  "geometry": {
    "type": "Point",
    "coordinates": [
      143.7164632,
      -38.5186424
    ]
  }
},
{
  "type": "Feature",
  "id": "node/336655315",
  "properties": {
    "is_in": "Aireys Inlet, Victoria, Australia",
    "name": "Fairhaven",
    "place": "village",
    "population": "354",
    "postal_code": "3231",
    "id": "node/336655315"
  },
  "geometry": {
    "type": "Point",
    "coordinates": [
      144.0828184,
      -38.4664229
    ]
  }
},
{
  "type": "Feature",
  "id": "node/338217490",
  "properties": {
    "is_in": "Victoria",
    "name": "Teesdale",
    "place": "village",
    "population": "1479",
    "id": "node/338217490"
  },
  "geometry": {
    "type": "Point",
    "coordinates": [
      144.0475898,
      -38.0287529
    ]
  }
},
{
  "type": "Feature",
  "id": "node/348204985",
  "properties": {
    "name": "Little Hampton",
    "place": "village",
    "id": "node/348204985"
  },
  "geometry": {
    "type": "Point",
    "coordinates": [
      144.2929052,
      -37.3601181
    ]
  }
},
{
  "type": "Feature",
  "id": "node/357001849",
  "properties": {
    "name": "Metcalfe",
    "place": "village",
    "id": "node/357001849"
  },
  "geometry": {
    "type": "Point",
    "coordinates": [
      144.4232273,
      -37.1015366
    ]
  }
},
{
  "type": "Feature",
  "id": "node/364650996",
  "properties": {
    "name": "Smythesdale",
    "place": "village",
    "id": "node/364650996"
  },
  "geometry": {
    "type": "Point",
    "coordinates": [
      143.6852896,
      -37.6444457
    ]
  }
},
{
  "type": "Feature",
  "id": "node/380041693",
  "properties": {
    "is_in": "Victoria",
    "name": "Cape Paterson",
    "place": "village",
    "population": "718",
    "postal_code": "3995",
    "wikidata": "Q2937253",
    "wikipedia": "en:Cape Paterson",
    "id": "node/380041693"
  },
  "geometry": {
    "type": "Point",
    "coordinates": [
      145.6160882,
      -38.6717208
    ]
  }
},
{
  "type": "Feature",
  "id": "node/413303193",
  "properties": {
    "name": "Rutherford Park",
    "place": "village",
    "id": "node/413303193"
  },
  "geometry": {
    "type": "Point",
    "coordinates": [
      144.0013241,
      -37.3445477
    ]
  }
},
{
  "type": "Feature",
  "id": "node/417279766",
  "properties": {
    "ele": "387",
    "name": "Beaufort",
    "name:ru": "Бофорт",
    "place": "town",
    "wikidata": "Q813371",
    "wikipedia": "en:Beaufort, Victoria",
    "id": "node/417279766"
  },
  "geometry": {
    "type": "Point",
    "coordinates": [
      143.3832189,
      -37.4292674
    ]
  }
},
{
  "type": "Feature",
  "id": "node/419546240",
  "properties": {
    "name": "Red Cliffs",
    "place": "town",
    "source": "Yahoo",
    "wikidata": "Q3422682",
    "id": "node/419546240"
  },
  "geometry": {
    "type": "Point",
    "coordinates": [
      142.1895377,
      -34.3070205
    ]
  }
},
{
  "type": "Feature",
  "id": "node/420518946",
  "properties": {
    "is_in": "Victoria, Australia",
    "is_in:country": "Australia",
    "name": "Bealiba",
    "place": "village",
    "id": "node/420518946"
  },
  "geometry": {
    "type": "Point",
    "coordinates": [
      143.5481415,
      -36.7892
    ]
  }
},
{
  "type": "Feature",
  "id": "node/421412263",
  "properties": {
    "name": "Pimpinio",
    "place": "village",
    "id": "node/421412263"
  },
  "geometry": {
    "type": "Point",
    "coordinates": [
      142.1193216,
      -36.5852232
    ]
  }
},
{
  "type": "Feature",
  "id": "node/422849931",
  "properties": {
    "is_in": "Victoria, Australia",
    "name": "Jeparit",
    "place": "village",
    "id": "node/422849931"
  },
  "geometry": {
    "type": "Point",
    "coordinates": [
      141.9885456,
      -36.1417708
    ]
  }
},
{
  "type": "Feature",
  "id": "node/426740324",
  "properties": {
    "name": "Natimuk",
    "place": "village",
    "wikidata": "Q2566556",
    "wikipedia": "en:Natimuk",
    "id": "node/426740324"
  },
  "geometry": {
    "type": "Point",
    "coordinates": [
      141.9421055,
      -36.741498
    ]
  }
},
{
  "type": "Feature",
  "id": "node/427443606",
  "properties": {
    "name": "Moonambel",
    "place": "village",
    "id": "node/427443606"
  },
  "geometry": {
    "type": "Point",
    "coordinates": [
      143.3197258,
      -36.9874114
    ]
  }
},
{
  "type": "Feature",
  "id": "node/427454038",
  "properties": {
    "name": "Natte Yallock",
    "place": "village",
    "id": "node/427454038"
  },
  "geometry": {
    "type": "Point",
    "coordinates": [
      143.4695996,
      -36.9410263
    ]
  }
},
{
  "type": "Feature",
  "id": "node/427547375",
  "properties": {
    "is_in": "Victoria, Australia",
    "name": "Boort",
    "place": "town",
    "population": "1173",
    "postal_code": "3537",
    "wikidata": "Q2910538",
    "id": "node/427547375"
  },
  "geometry": {
    "type": "Point",
    "coordinates": [
      143.7222634,
      -36.1177895
    ]
  }
},
{
  "type": "Feature",
  "id": "node/427834880",
  "properties": {
    "is_in": "Victoria, Australia",
    "name": "Pyramid Hill",
    "place": "town",
    "postal_code": "3575",
    "website": "http://www.pyramidhill.net.au/",
    "id": "node/427834880"
  },
  "geometry": {
    "type": "Point",
    "coordinates": [
      144.1155932,
      -36.0543991
    ]
  }
},
{
  "type": "Feature",
  "id": "node/427836164",
  "properties": {
    "is_in": "Victoria, Australia",
    "name": "Mitiamo",
    "place": "village",
    "postal_code": "3573",
    "id": "node/427836164"
  },
  "geometry": {
    "type": "Point",
    "coordinates": [
      144.2327218,
      -36.2098186
    ]
  }
},
{
  "type": "Feature",
  "id": "node/427865600",
  "properties": {
    "is_in": "Victoria, Australia",
    "name": "Dookie",
    "place": "village",
    "postal_code": "3546",
    "id": "node/427865600"
  },
  "geometry": {
    "type": "Point",
    "coordinates": [
      145.687416,
      -36.3283358
    ]
  }
},
{
  "type": "Feature",
  "id": "node/427865950",
  "properties": {
    "is_in": "Victoria, Australia",
    "name": "Devenish",
    "place": "village",
    "postal_code": "3726",
    "id": "node/427865950"
  },
  "geometry": {
    "type": "Point",
    "coordinates": [
      145.8953165,
      -36.3311019
    ]
  }
},
{
  "type": "Feature",
  "id": "node/427912726",
  "properties": {
    "name": "Timor",
    "place": "village",
    "id": "node/427912726"
  },
  "geometry": {
    "type": "Point",
    "coordinates": [
      143.7091366,
      -36.9838404
    ]
  }
},
{
  "type": "Feature",
  "id": "node/427912728",
  "properties": {
    "name": "Bowenvale",
    "place": "village",
    "id": "node/427912728"
  },
  "geometry": {
    "type": "Point",
    "coordinates": [
      143.7112944,
      -36.9902113
    ]
  }
},
{
  "type": "Feature",
  "id": "node/440006771",
  "properties": {
    "name": "Sedgwick",
    "place": "village",
    "wikidata": "Q29708630",
    "wikipedia": "en:Sedgwick, Victoria",
    "id": "node/440006771"
  },
  "geometry": {
    "type": "Point",
    "coordinates": [
      144.3190293,
      -36.8689118
    ]
  }
},
{
  "type": "Feature",
  "id": "node/456874812",
  "properties": {
    "name": "Dargo",
    "place": "village",
    "postal_code": "3862",
    "id": "node/456874812"
  },
  "geometry": {
    "type": "Point",
    "coordinates": [
      147.2510817,
      -37.4606911
    ]
  }
},
{
  "type": "Feature",
  "id": "node/473245158",
  "properties": {
    "name": "Stuart Mill",
    "place": "village",
    "id": "node/473245158"
  },
  "geometry": {
    "type": "Point",
    "coordinates": [
      143.2859212,
      -36.8057401
    ]
  }
},
{
  "type": "Feature",
  "id": "node/474993830",
  "properties": {
    "name": "Bromley",
    "place": "village",
    "id": "node/474993830"
  },
  "geometry": {
    "type": "Point",
    "coordinates": [
      143.7566755,
      -36.8809304
    ]
  }
},
{
  "type": "Feature",
  "id": "node/474993831",
  "properties": {
    "name": "Betley",
    "place": "village",
    "id": "node/474993831"
  },
  "geometry": {
    "type": "Point",
    "coordinates": [
      143.797133,
      -36.9085223
    ]
  }
},
{
  "type": "Feature",
  "id": "node/482791855",
  "properties": {
    "name": "Meredith",
    "place": "village",
    "id": "node/482791855"
  },
  "geometry": {
    "type": "Point",
    "coordinates": [
      144.0754653,
      -37.8436639
    ]
  }
},
{
  "type": "Feature",
  "id": "node/482791859",
  "properties": {
    "name": "Lethbridge",
    "place": "village",
    "id": "node/482791859"
  },
  "geometry": {
    "type": "Point",
    "coordinates": [
      144.1331351,
      -37.9672272
    ]
  }
},
{
  "type": "Feature",
  "id": "node/482791879",
  "properties": {
    "is_in": "Ballarat, Victoria, Australia",
    "name": "Buninyong",
    "place": "town",
    "wikidata": "Q2928211",
    "id": "node/482791879"
  },
  "geometry": {
    "type": "Point",
    "coordinates": [
      143.8839672,
      -37.6502675
    ]
  }
},
{
  "type": "Feature",
  "id": "node/506471044",
  "properties": {
    "is_in": "Victoria",
    "name": "Avenel",
    "place": "village",
    "id": "node/506471044"
  },
  "geometry": {
    "type": "Point",
    "coordinates": [
      145.2330184,
      -36.9018435
    ]
  }
},
{
  "type": "Feature",
  "id": "node/512089669",
  "properties": {
    "is_in:state": "Victoria",
    "name": "Casterton",
    "name:ru": "Кастертон",
    "place": "town",
    "wikidata": "Q2633771",
    "id": "node/512089669"
  },
  "geometry": {
    "type": "Point",
    "coordinates": [
      141.4037762,
      -37.585285
    ]
  }
},
{
  "type": "Feature",
  "id": "node/513051409",
  "properties": {
    "is_in": "Victoria",
    "name": "Rainbow",
    "place": "town",
    "ref": "Rainbow",
    "wikidata": "Q7284555",
    "id": "node/513051409"
  },
  "geometry": {
    "type": "Point",
    "coordinates": [
      141.9955533,
      -35.8981833
    ]
  }
},
{
  "type": "Feature",
  "id": "node/513051410",
  "properties": {
    "is_in": "Victoria",
    "name": "Yaapeet",
    "name:ru": "Яапит",
    "place": "village",
    "id": "node/513051410"
  },
  "geometry": {
    "type": "Point",
    "coordinates": [
      142.054038,
      -35.7690615
    ]
  }
},
{
  "type": "Feature",
  "id": "node/529849425",
  "properties": {
    "is_in:country": "Australia",
    "is_in:country_code": "AU",
    "name": "Wy Yung",
    "place": "village",
    "id": "node/529849425"
  },
  "geometry": {
    "type": "Point",
    "coordinates": [
      147.6194595,
      -37.8075305
    ]
  }
},
{
  "type": "Feature",
  "id": "node/534508901",
  "properties": {
    "name": "Koo Wee Rup",
    "place": "town",
    "wikidata": "Q1783750",
    "id": "node/534508901"
  },
  "geometry": {
    "type": "Point",
    "coordinates": [
      145.492854,
      -38.1990553
    ]
  }
},
{
  "type": "Feature",
  "id": "node/536319772",
  "properties": {
    "is_in": "Victoria Australia",
    "name": "Dartmoor",
    "place": "village",
    "id": "node/536319772"
  },
  "geometry": {
    "type": "Point",
    "coordinates": [
      141.2766551,
      -37.9225444
    ]
  }
},
{
  "type": "Feature",
  "id": "node/536417243",
  "properties": {
    "ele": "385",
    "name": "Riddells Creek",
    "place": "town",
    "id": "node/536417243"
  },
  "geometry": {
    "type": "Point",
    "coordinates": [
      144.6776503,
      -37.4587733
    ]
  }
},
{
  "type": "Feature",
  "id": "node/536428916",
  "properties": {
    "name": "Mount Macedon",
    "place": "village",
    "id": "node/536428916"
  },
  "geometry": {
    "type": "Point",
    "coordinates": [
      144.5876737,
      -37.4031982
    ]
  }
},
{
  "type": "Feature",
  "id": "node/550610421",
  "properties": {
    "name": "Pipers Creek",
    "place": "village",
    "id": "node/550610421"
  },
  "geometry": {
    "type": "Point",
    "coordinates": [
      144.54366,
      -37.2524866
    ]
  }
},
{
  "type": "Feature",
  "id": "node/556088786",
  "properties": {
    "is_in": "Victoria",
    "name": "Lang Lang",
    "place": "village",
    "wikidata": "Q1804848",
    "id": "node/556088786"
  },
  "geometry": {
    "type": "Point",
    "coordinates": [
      145.5627778,
      -38.2660405
    ]
  }
},
{
  "type": "Feature",
  "id": "node/559877687",
  "properties": {
    "is_in": "Victoria, Australia",
    "name": "Goughs Bay",
    "place": "village",
    "id": "node/559877687"
  },
  "geometry": {
    "type": "Point",
    "coordinates": [
      146.0667074,
      -37.1861324
    ]
  }
},
{
  "type": "Feature",
  "id": "node/560389644",
  "properties": {
    "name": "Haddon",
    "place": "village",
    "wikidata": "Q5637689",
    "wikipedia": "en:Haddon, Victoria",
    "id": "node/560389644"
  },
  "geometry": {
    "type": "Point",
    "coordinates": [
      143.7109084,
      -37.5891843
    ]
  }
},
{
  "type": "Feature",
  "id": "node/563709805",
  "properties": {
    "name": "Tarnagulla",
    "place": "village",
    "id": "node/563709805"
  },
  "geometry": {
    "type": "Point",
    "coordinates": [
      143.8314671,
      -36.7692407
    ]
  }
},
{
  "type": "Feature",
  "id": "node/564343915",
  "properties": {
    "name": "Bridgewater",
    "place": "village",
    "wikidata": "Q4966856",
    "wikipedia": "en:Bridgewater On Loddon, Victoria",
    "id": "node/564343915"
  },
  "geometry": {
    "type": "Point",
    "coordinates": [
      143.9414719,
      -36.6010212
    ]
  }
},
{
  "type": "Feature",
  "id": "node/564517285",
  "properties": {
    "name": "Inglewood",
    "place": "town",
    "wikidata": "Q14935166",
    "id": "node/564517285"
  },
  "geometry": {
    "type": "Point",
    "coordinates": [
      143.8685313,
      -36.5731171
    ]
  }
},
{
  "type": "Feature",
  "id": "node/573254855",
  "properties": {
    "name": "Talbot",
    "place": "town",
    "population": "440",
    "postal_code": "3371",
    "wikipedia": "en:Talbot, Victoria",
    "id": "node/573254855"
  },
  "geometry": {
    "type": "Point",
    "coordinates": [
      143.7017193,
      -37.1703696
    ]
  }
},
{
  "type": "Feature",
  "id": "node/573255140",
  "properties": {
    "name": "Majorca",
    "place": "village",
    "id": "node/573255140"
  },
  "geometry": {
    "type": "Point",
    "coordinates": [
      143.7984647,
      -37.1111128
    ]
  }
},
{
  "type": "Feature",
  "id": "node/583007059",
  "properties": {
    "is_in:country": "Australia",
    "name": "Nelson",
    "place": "village",
    "id": "node/583007059"
  },
  "geometry": {
    "type": "Point",
    "coordinates": [
      141.0063687,
      -38.0472404
    ]
  }
},
{
  "type": "Feature",
  "id": "node/583223357",
  "properties": {
    "name": "Stanley",
    "place": "village",
    "id": "node/583223357"
  },
  "geometry": {
    "type": "Point",
    "coordinates": [
      146.754845,
      -36.4048862
    ]
  }
},
{
  "type": "Feature",
  "id": "node/595501874",
  "properties": {
    "name": "Dadswells Bridge",
    "place": "village",
    "id": "node/595501874"
  },
  "geometry": {
    "type": "Point",
    "coordinates": [
      142.5133368,
      -36.9177601
    ]
  }
},
{
  "type": "Feature",
  "id": "node/595869190",
  "properties": {
    "name": "Coleraine",
    "name:ru": "Колрейн",
    "place": "town",
    "wikidata": "Q2037047",
    "id": "node/595869190"
  },
  "geometry": {
    "type": "Point",
    "coordinates": [
      141.6895453,
      -37.5998611
    ]
  }
},
{
  "type": "Feature",
  "id": "node/596083375",
  "properties": {
    "name": "Byaduk",
    "place": "village",
    "wikidata": "Q1018445",
    "wikipedia": "en:Byaduk",
    "id": "node/596083375"
  },
  "geometry": {
    "type": "Point",
    "coordinates": [
      141.9537599,
      -37.9517534
    ]
  }
},
{
  "type": "Feature",
  "id": "node/596090099",
  "properties": {
    "name": "Macarthur",
    "place": "village",
    "id": "node/596090099"
  },
  "geometry": {
    "type": "Point",
    "coordinates": [
      142.0001873,
      -38.03137
    ]
  }
},
{
  "type": "Feature",
  "id": "node/597124897",
  "properties": {
    "name": "Lake Boga",
    "place": "town",
    "wikidata": "Q2514940",
    "id": "node/597124897"
  },
  "geometry": {
    "type": "Point",
    "coordinates": [
      143.6319969,
      -35.4584642
    ]
  }
},
{
  "type": "Feature",
  "id": "node/598131168",
  "properties": {
    "addr:postcode": "3352",
    "name": "Lexton",
    "place": "village",
    "wikidata": "Q6537907",
    "wikipedia": "en:Lexton, Victoria",
    "id": "node/598131168"
  },
  "geometry": {
    "type": "Point",
    "coordinates": [
      143.5164784,
      -37.2758929
    ]
  }
},
{
  "type": "Feature",
  "id": "node/598180686",
  "properties": {
    "name": "Glenthompson",
    "place": "village",
    "id": "node/598180686"
  },
  "geometry": {
    "type": "Point",
    "coordinates": [
      142.5471404,
      -37.6362545
    ]
  }
},
{
  "type": "Feature",
  "id": "node/598180795",
  "properties": {
    "is_in:state": "Victoria",
    "name": "Wickliffe",
    "place": "village",
    "id": "node/598180795"
  },
  "geometry": {
    "type": "Point",
    "coordinates": [
      142.7235575,
      -37.6903456
    ]
  }
},
{
  "type": "Feature",
  "id": "node/598180807",
  "properties": {
    "is_in": "Victoria, Australia",
    "name": "Lake Bolac",
    "place": "village",
    "id": "node/598180807"
  },
  "geometry": {
    "type": "Point",
    "coordinates": [
      142.838586,
      -37.7106948
    ]
  }
},
{
  "type": "Feature",
  "id": "node/598180853",
  "properties": {
    "is_in": "Victoria, Australia",
    "name": "Westmere",
    "place": "village",
    "id": "node/598180853"
  },
  "geometry": {
    "type": "Point",
    "coordinates": [
      142.9710248,
      -37.68795
    ]
  }
},
{
  "type": "Feature",
  "id": "node/598180867",
  "properties": {
    "is_in": "Victoria, Australia",
    "name": "Streatham",
    "place": "village",
    "id": "node/598180867"
  },
  "geometry": {
    "type": "Point",
    "coordinates": [
      143.0629431,
      -37.6792249
    ]
  }
},
{
  "type": "Feature",
  "id": "node/598473187",
  "properties": {
    "is_in": "Victoria, Australia",
    "name": "Purnim",
    "place": "village",
    "id": "node/598473187"
  },
  "geometry": {
    "type": "Point",
    "coordinates": [
      142.6203096,
      -38.2802342
    ]
  }
},
{
  "type": "Feature",
  "id": "node/598474211",
  "properties": {
    "name": "Ellerslie",
    "place": "village",
    "wikidata": "Q31440052",
    "id": "node/598474211"
  },
  "geometry": {
    "type": "Point",
    "coordinates": [
      142.6831677,
      -38.1513311
    ]
  }
},
{
  "type": "Feature",
  "id": "node/598476141",
  "properties": {
    "is_in:country": "Australia",
    "is_in:state": "Victoria",
    "name": "Derrinallum",
    "place": "village",
    "id": "node/598476141"
  },
  "geometry": {
    "type": "Point",
    "coordinates": [
      143.2232842,
      -37.9480803
    ]
  }
},
{
  "type": "Feature",
  "id": "node/598476143",
  "properties": {
    "is_in:country": "Australia",
    "is_in:state": "Victoria",
    "name": "Lismore",
    "place": "village",
    "id": "node/598476143"
  },
  "geometry": {
    "type": "Point",
    "coordinates": [
      143.3426993,
      -37.952754
    ]
  }
},
{
  "type": "Feature",
  "id": "node/598893746",
  "properties": {
    "name": "Winnap",
    "place": "village",
    "id": "node/598893746"
  },
  "geometry": {
    "type": "Point",
    "coordinates": [
      141.3185638,
      -37.9447834
    ]
  }
},
{
  "type": "Feature",
  "id": "node/600217120",
  "properties": {
    "name": "Allestree",
    "place": "village",
    "id": "node/600217120"
  },
  "geometry": {
    "type": "Point",
    "coordinates": [
      141.631467,
      -38.2828148
    ]
  }
},
{
  "type": "Feature",
  "id": "node/600217286",
  "properties": {
    "name": "Narrawong",
    "place": "village",
    "id": "node/600217286"
  },
  "geometry": {
    "type": "Point",
    "coordinates": [
      141.7120678,
      -38.2527619
    ]
  }
},
{
  "type": "Feature",
  "id": "node/600217306",
  "properties": {
    "is_in": "Victoria, Australia",
    "name": "Tyrendarra",
    "place": "village",
    "id": "node/600217306"
  },
  "geometry": {
    "type": "Point",
    "coordinates": [
      141.7816196,
      -38.2176813
    ]
  }
},
{
  "type": "Feature",
  "id": "node/601804693",
  "properties": {
    "is_in:country": "Australia",
    "is_in:state": "Victoria",
    "name": "Penshurst",
    "place": "village",
    "id": "node/601804693"
  },
  "geometry": {
    "type": "Point",
    "coordinates": [
      142.2915453,
      -37.8753817
    ]
  }
},
{
  "type": "Feature",
  "id": "node/603045042",
  "properties": {
    "is_in": "Venus Bay",
    "name": "Venus Bay 2nd Estate",
    "place": "village",
    "id": "node/603045042"
  },
  "geometry": {
    "type": "Point",
    "coordinates": [
      145.7890303,
      -38.6766326
    ]
  }
},
{
  "type": "Feature",
  "id": "node/608665084",
  "properties": {
    "name": "Linton",
    "place": "village",
    "source": "local_knowledge",
    "id": "node/608665084"
  },
  "geometry": {
    "type": "Point",
    "coordinates": [
      143.5621257,
      -37.6869943
    ]
  }
},
{
  "type": "Feature",
  "id": "node/610899034",
  "properties": {
    "name": "Mt Buller Village",
    "place": "village",
    "id": "node/610899034"
  },
  "geometry": {
    "type": "Point",
    "coordinates": [
      146.4503164,
      -37.1464059
    ]
  }
},
{
  "type": "Feature",
  "id": "node/614465526",
  "properties": {
    "is_in": "Victoria, Australia",
    "name": "Merricks Beach",
    "place": "village",
    "source": "survey",
    "wikidata": "Q6820097",
    "id": "node/614465526"
  },
  "geometry": {
    "type": "Point",
    "coordinates": [
      145.0986775,
      -38.3998558
    ]
  }
},
{
  "type": "Feature",
  "id": "node/614465804",
  "properties": {
    "is_in": "Victoria, Australia",
    "name": "Balnarring Beach",
    "place": "village",
    "source": "survey",
    "id": "node/614465804"
  },
  "geometry": {
    "type": "Point",
    "coordinates": [
      145.1200713,
      -38.3912033
    ]
  }
},
{
  "type": "Feature",
  "id": "node/616579495",
  "properties": {
    "is_in": "Victoria, Australia",
    "name": "Gembrook",
    "place": "village",
    "population": "942",
    "postal_code": "3783",
    "wikidata": "Q5530582",
    "id": "node/616579495"
  },
  "geometry": {
    "type": "Point",
    "coordinates": [
      145.550276,
      -37.9527594
    ]
  }
},
{
  "type": "Feature",
  "id": "node/617532907",
  "properties": {
    "name": "Balnarring",
    "place": "village",
    "wikidata": "Q944965",
    "id": "node/617532907"
  },
  "geometry": {
    "type": "Point",
    "coordinates": [
      145.1171365,
      -38.3707915
    ]
  }
},
{
  "type": "Feature",
  "id": "node/621866750",
  "properties": {
    "name": "Edenhope",
    "place": "town",
    "wikidata": "Q2025580",
    "id": "node/621866750"
  },
  "geometry": {
    "type": "Point",
    "coordinates": [
      141.2903039,
      -37.0373011
    ]
  }
},
{
  "type": "Feature",
  "id": "node/642902605",
  "properties": {
    "name": "Katamatite",
    "place": "town",
    "wikidata": "Q929332",
    "id": "node/642902605"
  },
  "geometry": {
    "type": "Point",
    "coordinates": [
      145.6873855,
      -36.0796109
    ]
  }
},
{
  "type": "Feature",
  "id": "node/643008740",
  "properties": {
    "name": "Nathalia",
    "place": "town",
    "wikidata": "Q3336527",
    "id": "node/643008740"
  },
  "geometry": {
    "type": "Point",
    "coordinates": [
      145.207485,
      -36.0578072
    ]
  }
},
{
  "type": "Feature",
  "id": "node/644290984",
  "properties": {
    "name": "Tungamah",
    "place": "village",
    "id": "node/644290984"
  },
  "geometry": {
    "type": "Point",
    "coordinates": [
      145.8793802,
      -36.1636796
    ]
  }
},
{
  "type": "Feature",
  "id": "node/647402707",
  "properties": {
    "name": "Katandra West",
    "place": "village",
    "id": "node/647402707"
  },
  "geometry": {
    "type": "Point",
    "coordinates": [
      145.5592149,
      -36.227586
    ]
  }
},
{
  "type": "Feature",
  "id": "node/662026831",
  "properties": {
    "ele": "154",
    "is_in": "Victoria, Australia",
    "is_in:country": "Australia",
    "is_in:country_code": "AU",
    "is_in:state": "Victoria",
    "is_in:state_code": "VIC",
    "name": "Wangaratta",
    "name:en": "Wangaratta",
    "name:ja": "ウォンガラッタ",
    "name:ru": "Уонгаратта",
    "name:uk": "Вангаратта",
    "name:zh": "旺加拉塔",
    "place": "city",
    "population": "26814",
    "source:population": "http://www.censusdata.abs.gov.au/census_services/getproduct/census/2011/quickstat/",
    "wikidata": "Q1024728",
    "wikipedia": "en:Wangaratta",
    "id": "node/662026831"
  },
  "geometry": {
    "type": "Point",
    "coordinates": [
      146.3230914,
      -36.3562509
    ]
  }
},
{
  "type": "Feature",
  "id": "node/665692449",
  "properties": {
    "is_in:country": "Australia",
    "is_in:country_code": "AU",
    "is_in:state": "VIC",
    "name": "Hopetoun",
    "place": "town",
    "wikidata": "Q1144250",
    "wikipedia": "en:Hopetoun, Victoria",
    "id": "node/665692449"
  },
  "geometry": {
    "type": "Point",
    "coordinates": [
      142.3635936,
      -35.7295279
    ]
  }
},